{"class":"VERSION","release":"3.16","rev":"3.16-4","proto_major":3,"proto_minor":11}{"class":"DEVICES","devices":[{"class":"DEVICE","path":"/dev/ttyS0","driver":"NMEA0183","activated":"2019-05-02T00:45:19.252Z","flags":1,"native":0,"bps":9600,"parity":"N","stopbits":1,"cycle":1.00}]}{"class":"WATCH","enable":true,"json":false,"nmea":false,"raw":2,"scaled":false,"timing":false,"split24":false,"pps":true}$GPGGA,002012.799,,,,,0,00,,,M,,M,,*7E
$GPRMC,005732.301,V,,,,,0.45,266.12,020519,,,N*43
$GPVTG,266.12,T,,M,0.45,N,0.84,K,N*3E
$GPGGA,005734.000,3729.5115,N,12647.0646,E,1,04,1.80,26.6,M,19.0,M,,*53
$GPGSA,A,2,29,31,26,32,,,,,,,,,2.05,1.80,0.99*01
$GPRMC,005734.000,A,3729.5115,N,12647.0646,E,0.51,265.10,020519,,,A*6D
$GPVTG,265.10,T,,M,0.51,N,0.95,K,A*35
$GPGGA,005735.000,3729.5119,N,12647.0613,E,1,04,1.80,14.0,M,19.0,M,,*59
$GPGSA,A,2,29,31,26,32,,,,,,,,,2.05,1.80,0.99*01
$GPGSV,3,1,11,31,67,036,21,26,66,261,25,42,44,158,,32,39,160,30*7D
$GPGSV,3,2,11,29,35,060,25,03,19,282,16,25,14,051,16,27,01,194,*79
$GPGSV,3,3,11,193,,,,16,,,17,14,,,17*40
$GPRMC,005735.000,A,3729.5119,N,12647.0613,E,0.66,268.79,020519,,,A*66
$GPVTG,268.79,T,,M,0.66,N,1.22,K,A*3E
$GPGGA,005736.000,3729.5120,N,12647.0594,E,1,04,1.80,6.0,M,19.0,M,,*6F
$GPGSA,A,2,29,31,26,32,,,,,,,,,2.05,1.80,0.99*01
$GPRMC,005736.000,A,3729.5120,N,12647.0594,E,0.67,268.77,020519,,,A*6C
$GPVTG,268.77,T,,M,0.67,N,1.25,K,A*36
$GPGGA,005737.000,3729.5121,N,12647.0580,E,1,04,1.80,0.1,M,19.0,M,,*6D
$GPGSA,A,2,29,31,26,32,,,,,,,,,2.05,1.80,0.99*01
$GPRMC,005737.000,A,3729.5121,N,12647.0580,E,0.56,266.22,020519,,,A*65
$GPVTG,266.22,T,,M,0.56,N,1.04,K,A*39
$GPGGA,005738.000,3729.5123,N,12647.0569,E,1,04,1.80,-3.5,M,19.0,M,,*4D
$GPGSA,A,2,29,31,26,32,,,,,,,,,2.05,1.80,0.99*01
$GPRMC,005738.000,A,3729.5123,N,12647.0569,E,0.45,266.60,020519,,,A*6B
$GPVTG,266.60,T,,M,0.45,N,0.83,K,A*33
$GPGGA,005739.000,3729.5124,N,12647.0568,E,1,04,1.80,-2.0,M,19.0,M,,*4E
$GPGSA,A,3,29,31,26,32,,,,,,,,,2.05,1.80,0.99*00
$GPRMC,005739.000,A,3729.5124,N,12647.0568,E,0.48,277.95,020519,,,A*6B
$GPVTG,277.95,T,,M,0.48,N,0.90,K,A*36
$GPGGA,005740.000,3729.5126,N,12647.0566,E,1,04,1.80,-0.7,M,19.0,M,,*49
$GPGSA,A,3,29,31,26,32,,,,,,,,,2.05,1.80,0.99*00
$GPGSV,3,1,11,31,67,036,18,26,66,261,24,42,44,158,,32,39,160,30*76
$GPGSV,3,2,11,29,35,060,24,03,19,282,15,25,14,051,16,27,01,194,*7B
$GPGSV,3,3,11,193,,,,16,,,14,14,,,17*43
$GPRMC,005740.000,A,3729.5126,N,12647.0566,E,0.47,295.09,020519,,,A*6F
$GPVTG,295.09,T,,M,0.47,N,0.86,K,A*37
$GPGGA,005741.000,3729.5128,N,12647.0567,E,1,04,1.80,2.0,M,19.0,M,,*6F
$GPGSA,A,3,29,31,26,32,,,,,,,,,2.05,1.80,0.99*00
$GPRMC,005741.000,A,3729.5128,N,12647.0567,E,0.43,300.97,020519,,,A*6F
$GPVTG,300.97,T,,M,0.43,N,0.80,K,A*3F
$GPGGA,005742.000,3729.5129,N,12647.0567,E,1,04,1.80,4.3,M,19.0,M,,*68
$GPGSA,A,3,29,31,26,32,,,,,,,,,2.05,1.80,0.99*00
$GPRMC,005742.000,A,3729.5129,N,12647.0567,E,0.45,297.16,020519,,,A*6D
$GPVTG,297.16,T,,M,0.45,N,0.83,K,A*3C
$GPGGA,005743.000,3729.5132,N,12647.0566,E,1,04,1.80,6.6,M,19.0,M,,*65
$GPGSA,A,3,29,31,26,32,,,,,,,,,2.05,1.80,0.99*00
$GPRMC,005743.000,A,3729.5132,N,12647.0566,E,0.48,294.56,020519,,,A*6D
$GPVTG,294.56,T,,M,0.48,N,0.89,K,A*3C
$GPGGA,005744.000,3729.5133,N,12647.0568,E,1,04,1.80,8.9,M,19.0,M,,*6C
$GPGSA,A,3,29,31,26,32,,,,,,,,,2.05,1.80,0.99*00
$GPRMC,005744.000,A,3729.5133,N,12647.0568,E,0.45,289.54,020519,,,A*66
$GPVTG,289.54,T,,M,0.45,N,0.83,K,A*35
$GPGGA,005745.000,3729.5134,N,12647.0570,E,1,04,1.80,11.2,M,19.0,M,,*50
$GPGSA,A,3,29,31,26,32,,,,,,,,,2.05,1.80,0.99*00
$GPGSV,3,1,11,31,67,036,18,26,66,261,24,50,42,151,,32,39,160,29*72
$GPGSV,3,2,11,29,35,060,24,03,19,282,15,25,14,051,16,27,01,194,*7B
$GPGSV,3,3,11,193,,,,16,,,13,14,,,16*45
$GPRMC,005745.000,A,3729.5134,N,12647.0570,E,0.38,296.35,020519,,,A*6A
$GPVTG,296.35,T,,M,0.38,N,0.71,K,A*3B
$GPGGA,005746.000,3729.5136,N,12647.0572,E,1,04,1.80,13.9,M,19.0,M,,*5A
$GPGSA,A,3,29,31,26,32,,,,,,,,,2.05,1.80,0.99*00
$GPRMC,005746.000,A,3729.5136,N,12647.0572,E,0.47,298.74,020519,,,A*6A
$GPVTG,298.74,T,,M,0.47,N,0.87,K,A*31
$GPGGA,005747.000,3729.5137,N,12647.0576,E,1,04,1.80,17.5,M,19.0,M,,*56
$GPGSA,A,3,29,31,26,32,,,,,,,,,2.05,1.80,0.99*00
$GPRMC,005747.000,A,3729.5137,N,12647.0576,E,0.51,300.83,020519,,,A*61
$GPVTG,300.83,T,,M,0.51,N,0.95,K,A*3D
$GPGGA,005748.000,3729.5139,N,12647.0580,E,1,04,1.80,20.8,M,19.0,M,,*57
$GPGSA,A,3,29,31,26,32,,,,,,,,,2.05,1.80,0.99*00
$GPRMC,005748.000,A,3729.5139,N,12647.0580,E,0.57,297.57,020519,,,A*69
$GPVTG,297.57,T,,M,0.57,N,1.06,K,A*36
$GPGGA,005749.000,3729.5139,N,12647.0584,E,1,04,1.80,23.4,M,19.0,M,,*5D
$GPGSA,A,3,29,31,26,32,,,,,,,,,2.05,1.80,0.99*00
$GPRMC,005749.000,A,3729.5139,N,12647.0584,E,0.55,296.82,020519,,,A*67
$GPVTG,296.82,T,,M,0.55,N,1.01,K,A*3A
$GPGGA,005750.000,3729.5139,N,12647.0600,E,1,04,1.80,31.7,M,19.0,M,,*5A
$GPGSA,A,3,29,31,26,32,,,,,,,,,2.05,1.80,0.99*00
$GPGSV,3,1,11,31,67,036,20,26,66,261,21,32,39,160,27,29,35,060,24*79
$GPGSV,3,2,11,03,19,282,16,25,14,051,16,44,13,251,,27,01,194,*71
$GPGSV,3,3,11,193,,,,16,,,16,14,,,18*4E
$GPRMC,005750.000,A,3729.5139,N,12647.0600,E,0.54,297.12,020519,,,A*69
$GPVTG,297.12,T,,M,0.54,N,1.00,K,A*32
$GPGGA,005751.000,3729.5139,N,12647.0608,E,1,04,1.80,35.3,M,19.0,M,,*53
$GPGSA,A,3,29,31,26,32,,,,,,,,,2.05,1.80,0.99*00
$GPRMC,005751.000,A,3729.5139,N,12647.0608,E,0.45,295.83,020519,,,A*6A
$GPVTG,295.83,T,,M,0.45,N,0.83,K,A*32
$GPGGA,005752.000,3729.5137,N,12647.0612,E,1,04,1.80,37.1,M,19.0,M,,*55
$GPGSA,A,3,29,31,26,32,,,,,,,,,2.05,1.80,0.99*00
$GPRMC,005752.000,A,3729.5137,N,12647.0612,E,0.37,285.56,020519,,,A*60
$GPVTG,285.56,T,,M,0.37,N,0.69,K,A*3A
$GPGGA,005753.000,3729.5134,N,12647.0619,E,1,04,1.80,39.2,M,19.0,M,,*51
$GPGSA,A,3,29,31,26,32,,,,,,,,,2.05,1.80,0.99*00
$GPRMC,005753.000,A,3729.5134,N,12647.0619,E,0.31,272.64,020519,,,A*66
$GPVTG,272.64,T,,M,0.31,N,0.58,K,A*37
$GPGGA,005754.000,3729.5129,N,12647.0630,E,1,04,1.80,41.8,M,19.0,M,,*54
$GPGSA,A,3,29,31,26,32,,,,,,,,,2.05,1.80,0.99*00
$GPRMC,005754.000,A,3729.5129,N,12647.0630,E,0.28,238.34,020519,,,A*65
$GPVTG,238.34,T,,M,0.28,N,0.52,K,A*3E
$GPGGA,005755.000,3729.5121,N,12647.0638,E,1,04,1.80,43.9,M,19.0,M,,*56
$GPGSA,A,3,29,31,26,32,,,,,,,,,2.05,1.80,0.99*00
$GPGSV,3,1,11,31,67,036,23,26,66,261,19,32,39,160,26,29,35,060,28*7C
$GPGSV,3,2,11,03,19,282,15,25,14,051,15,44,13,251,,27,01,194,*71
$GPGSV,3,3,11,193,,,,16,,,16,14,,,17*41
$GPRMC,005755.000,A,3729.5121,N,12647.0638,E,0.52,202.67,020519,,,A*66
$GPVTG,202.67,T,,M,0.52,N,0.96,K,A*34
$GPGGA,005756.000,3729.5111,N,12647.0647,E,1,04,1.80,45.7,M,19.0,M,,*56
$GPGSA,A,3,29,31,26,32,,,,,,,,,2.05,1.80,0.99*00
$GPRMC,005756.000,A,3729.5111,N,12647.0647,E,0.93,185.24,020519,,,A*68
$GPVTG,185.24,T,,M,0.93,N,1.72,K,A*39
$GPGGA,005757.000,3729.5084,N,12647.0649,E,1,04,1.80,48.4,M,19.0,M,,*5A
$GPGSA,A,3,29,31,26,32,,,,,,,,,2.05,1.80,0.99*00
$GPRMC,005757.000,A,3729.5084,N,12647.0649,E,2.39,190.08,020519,,,A*62
$GPVTG,190.08,T,,M,2.39,N,4.42,K,A*37
$GPGGA,005758.000,3729.5051,N,12647.0628,E,1,04,1.80,48.5,M,19.0,M,,*5B
$GPGSA,A,3,29,31,26,32,,,,,,,,,2.05,1.80,0.99*00
$GPRMC,005758.000,A,3729.5051,N,12647.0628,E,4.82,203.66,020519,,,A*65
$GPVTG,203.66,T,,M,4.82,N,8.94,K,A*37
$GPGGA,005759.000,3729.5016,N,12647.0625,E,1,04,1.80,48.4,M,19.0,M,,*55
$GPGSA,A,3,29,31,26,32,,,,,,,,,2.05,1.80,0.99*00
$GPRMC,005759.000,A,3729.5016,N,12647.0625,E,9.65,190.42,020519,,,A*61
$GPVTG,190.42,T,,M,9.65,N,17.87,K,A*00
$GPGGA,005800.000,3729.4981,N,12647.0618,E,1,04,1.80,48.5,M,19.0,M,,*5F
$GPGSA,A,3,29,31,26,32,,,,,,,,,2.05,1.80,0.99*00
$GPGSV,3,1,11,31,67,036,20,26,66,262,33,32,39,160,29,29,35,060,35*77
$GPGSV,3,2,11,03,19,282,17,25,14,051,15,40,12,252,,27,01,194,*75
$GPGSV,3,3,11,193,,,,16,,,23,14,,,18*48
$GPRMC,005800.000,A,3729.4981,N,12647.0618,E,12.12,192.33,020519,,,A*54
$GPVTG,192.33,T,,M,12.12,N,22.45,K,A*36
$GPGGA,005801.000,3729.4939,N,12647.0609,E,1,04,1.80,48.6,M,19.0,M,,*5E
$GPGSA,A,3,29,31,26,32,,,,,,,,,2.05,1.80,0.99*00
$GPRMC,005801.000,A,3729.4939,N,12647.0609,E,15.68,193.88,020519,,,A*5D
$GPVTG,193.88,T,,M,15.68,N,29.06,K,A*31
$GPGGA,005802.000,3729.4893,N,12647.0600,E,1,04,1.80,49.3,M,19.0,M,,*51
$GPGSA,A,3,29,31,26,32,,,,,,,,,2.05,1.80,0.99*00
$GPRMC,005802.000,A,3729.4893,N,12647.0600,E,16.58,192.56,020519,,,A*54
$GPVTG,192.56,T,,M,16.58,N,30.72,K,A*38
$GPGGA,005803.000,3729.4845,N,12647.0591,E,1,04,1.80,50.2,M,19.0,M,,*59
$GPGSA,A,3,29,31,26,32,,,,,,,,,2.05,1.80,0.99*00
$GPRMC,005803.000,A,3729.4845,N,12647.0591,E,17.07,192.03,020519,,,A*5E
$GPVTG,192.03,T,,M,17.07,N,31.64,K,A*35
$GPGGA,005804.000,3729.4797,N,12647.0582,E,1,04,1.80,51.0,M,19.0,M,,*5F
$GPGSA,A,3,29,31,26,32,,,,,,,,,2.05,1.80,0.99*00
$GPRMC,005804.000,A,3729.4797,N,12647.0582,E,17.17,191.50,020519,,,A*5F
$GPVTG,191.50,T,,M,17.17,N,31.81,K,A*3A
$GPGGA,005805.000,3729.4746,N,12647.0576,E,1,04,1.80,51.8,M,19.0,M,,*51
$GPGSA,A,3,29,31,26,32,,,,,,,,,2.05,1.80,0.99*00
$GPGSV,3,1,11,31,67,037,20,26,66,262,26,32,39,160,23,29,35,059,31*76
$GPGSV,3,2,11,03,19,282,20,25,14,051,19,40,12,252,,27,01,194,*7D
$GPGSV,3,3,11,193,,,,16,,,20,14,,,19*4A
$GPRMC,005805.000,A,3729.4746,N,12647.0576,E,17.89,190.14,020519,,,A*5F
$GPVTG,190.14,T,,M,17.89,N,33.16,K,A*30
$GPGGA,005806.000,3729.4697,N,12647.0568,E,1,04,1.80,52.2,M,19.0,M,,*59
$GPGSA,A,3,29,31,26,32,,,,,,,,,2.05,1.80,0.99*00
$GPRMC,005806.000,A,3729.4697,N,12647.0568,E,17.64,189.69,020519,,,A*5F
$GPVTG,189.69,T,,M,17.64,N,32.69,K,A*38
$GPGGA,005807.000,3729.4648,N,12647.0559,E,1,04,1.80,52.4,M,19.0,M,,*5E
$GPGSA,A,3,29,31,26,32,,,,,,,,,2.05,1.80,0.99*00
$GPRMC,005807.000,A,3729.4648,N,12647.0559,E,17.46,189.83,020519,,,A*5A
$GPVTG,189.83,T,,M,17.46,N,32.36,K,A*36
$GPGGA,005808.000,3729.4598,N,12647.0548,E,1,04,1.80,52.4,M,19.0,M,,*5F
$GPGSA,A,3,29,31,26,32,,,,,,,,,2.05,1.80,0.99*00
$GPRMC,005808.000,A,3729.4598,N,12647.0548,E,17.83,190.61,020519,,,A*56
$GPVTG,190.61,T,,M,17.83,N,33.04,K,A*3B
$GPGGA,005809.000,3729.4543,N,12647.0539,E,1,04,1.80,52.5,M,19.0,M,,*5F
$GPGSA,A,3,29,31,26,32,,,,,,,,,2.05,1.80,0.99*00
$GPRMC,005809.000,A,3729.4543,N,12647.0539,E,18.47,190.80,020519,,,A*5F
$GPVTG,190.80,T,,M,18.47,N,34.23,K,A*31
$GPGGA,005810.000,3729.4483,N,12647.0530,E,1,04,1.80,52.3,M,19.0,M,,*55
$GPGSA,A,3,29,31,26,32,,,,,,,,,2.05,1.80,0.99*00
$GPGSV,3,1,11,31,67,037,18,26,66,262,28,42,44,158,,32,39,160,24*7D
$GPGSV,3,2,11,29,35,059,33,03,19,282,18,25,14,051,25,27,01,194,*7A
$GPGSV,3,3,11,193,,,,16,,,26,14,,,17*42
$GPRMC,005810.000,A,3729.4483,N,12647.0530,E,19.00,190.88,020519,,,A*59
$GPVTG,190.88,T,,M,19.00,N,35.21,K,A*38
$GPGGA,005811.000,3729.4428,N,12647.0516,E,1,04,1.80,52.1,M,19.0,M,,*53
$GPGSA,A,3,29,31,26,32,,,,,,,,,2.05,1.80,0.99*00
$GPRMC,005811.000,A,3729.4428,N,12647.0516,E,19.45,190.53,020519,,,A*5A
$GPVTG,190.53,T,,M,19.45,N,36.03,K,A*3C
$GPGGA,005812.000,3729.4369,N,12647.0503,E,1,04,1.80,51.9,M,19.0,M,,*5D
$GPGSA,A,3,29,31,26,32,,,,,,,,,2.05,1.80,0.99*00
$GPRMC,005812.000,A,3729.4369,N,12647.0503,E,20.87,192.48,020519,,,A*53
$GPVTG,192.48,T,,M,20.87,N,38.67,K,A*3C
$GPGGA,005813.000,3729.4308,N,12647.0492,E,1,04,1.80,51.8,M,19.0,M,,*53
$GPGSA,A,3,29,31,26,32,,,,,,,,,2.05,1.80,0.99*00
$GPRMC,005813.000,A,3729.4308,N,12647.0492,E,21.27,189.23,020519,,,A*50
$GPVTG,189.23,T,,M,21.27,N,39.42,K,A*36
$GPGGA,005814.000,3729.4247,N,12647.0484,E,1,04,1.80,51.6,M,19.0,M,,*57
$GPGSA,A,3,29,31,26,32,,,,,,,,,2.05,1.80,0.99*00
$GPRMC,005814.000,A,3729.4247,N,12647.0484,E,20.71,186.84,020519,,,A*5A
$GPVTG,186.84,T,,M,20.71,N,38.38,K,A*3A
$GPGGA,005815.000,3729.4190,N,12647.0474,E,1,04,1.80,50.8,M,19.0,M,,*5F
$GPGSA,A,3,29,31,26,32,,,,,,,,,2.05,1.80,0.99*00
$GPGSV,3,1,11,31,67,037,18,26,66,262,31,42,44,158,,32,39,160,22*73
$GPGSV,3,2,11,29,35,059,33,03,19,281,,25,14,051,26,27,01,194,*73
$GPGSV,3,3,11,193,,,,16,,,23,14,,,16*46
$GPRMC,005815.000,A,3729.4190,N,12647.0474,E,20.57,186.62,020519,,,A*51
$GPVTG,186.62,T,,M,20.57,N,38.12,K,A*3E
$GPGGA,005816.000,3729.4136,N,12647.0460,E,1,04,1.80,50.2,M,19.0,M,,*5F
$GPGSA,A,3,29,31,26,32,,,,,,,,,2.05,1.80,0.99*00
$GPRMC,005816.000,A,3729.4136,N,12647.0460,E,19.73,189.06,020519,,,A*5A
$GPVTG,189.06,T,,M,19.73,N,36.56,K,A*31
$GPGGA,005817.000,3729.4082,N,12647.0445,E,1,04,1.80,49.4,M,19.0,M,,*59
$GPGSA,A,3,29,31,26,32,,,,,,,,,2.05,1.80,0.99*00
$GPRMC,005817.000,A,3729.4082,N,12647.0445,E,19.83,191.02,020519,,,A*50
$GPVTG,191.02,T,,M,19.83,N,36.74,K,A*33
$GPGGA,005818.000,3729.4028,N,12647.0433,E,1,04,1.80,48.9,M,19.0,M,,*5B
$GPGSA,A,3,29,31,26,32,,,,,,,,,2.05,1.80,0.99*00
$GPRMC,005818.000,A,3729.4028,N,12647.0433,E,19.26,188.55,020519,,,A*5B
$GPVTG,188.55,T,,M,19.26,N,35.69,K,A*39
$GPGGA,005819.000,3729.3974,N,12647.0425,E,1,04,1.80,48.5,M,19.0,M,,*56
$GPGSA,A,3,29,31,26,32,,,,,,,,,2.05,1.80,0.99*00
$GPRMC,005819.000,A,3729.3974,N,12647.0425,E,18.32,186.67,020519,,,A*51
$GPVTG,186.67,T,,M,18.32,N,33.94,K,A*36
$GPGGA,005820.000,3729.3929,N,12647.0414,E,1,04,1.80,48.3,M,19.0,M,,*50
$GPGSA,A,3,29,31,26,32,,,,,,,,,2.05,1.80,0.99*00
$GPGSV,3,1,10,31,67,037,18,26,66,262,16,50,42,151,,32,39,160,23*7A
$GPGSV,3,2,10,29,35,059,34,03,19,281,17,25,14,051,,27,01,194,*77
$GPGSV,3,3,10,193,,,,14,,,16*41
$GPRMC,005820.000,A,3729.3929,N,12647.0414,E,17.44,188.50,020519,,,A*55
$GPVTG,188.50,T,,M,17.44,N,32.31,K,A*3C
$GPGGA,005821.000,3729.3886,N,12647.0404,E,1,04,1.80,48.1,M,19.0,M,,*56
$GPGSA,A,3,29,31,26,32,,,,,,,,,2.05,1.80,0.99*00
$GPRMC,005821.000,A,3729.3886,N,12647.0404,E,15.92,187.89,020519,,,A*53
$GPVTG,187.89,T,,M,15.92,N,29.49,K,A*3B
$GPGGA,005822.000,3729.3847,N,12647.0394,E,1,04,1.80,47.9,M,19.0,M,,*51
$GPGSA,A,3,29,31,26,32,,,,,,,,,2.05,1.80,0.99*00
$GPRMC,005822.000,A,3729.3847,N,12647.0394,E,14.96,188.37,020519,,,A*5C
$GPVTG,188.37,T,,M,14.96,N,27.73,K,A*33
$GPGGA,005823.000,3729.3813,N,12647.0382,E,1,04,1.80,47.6,M,19.0,M,,*59
$GPGSA,A,3,29,31,26,32,,,,,,,,,2.05,1.80,0.99*00
$GPRMC,005823.000,A,3729.3813,N,12647.0382,E,13.89,190.70,020519,,,A*58
$GPVTG,190.70,T,,M,13.89,N,25.74,K,A*35
$GPGGA,005824.000,3729.3769,N,12647.0382,E,1,04,1.80,47.9,M,19.0,M,,*53
$GPGSA,A,3,29,31,26,32,,,,,,,,,2.05,1.80,0.99*00
$GPRMC,005824.000,A,3729.3769,N,12647.0382,E,14.84,187.85,020519,,,A*5B
$GPVTG,187.85,T,,M,14.84,N,27.50,K,A*37
$GPGGA,005825.000,3729.3727,N,12647.0371,E,1,04,1.80,47.7,M,19.0,M,,*5A
$GPGSA,A,3,29,31,26,32,,,,,,,,,2.05,1.80,0.99*00
$GPGSV,3,1,11,31,67,037,21,26,66,262,19,50,42,151,,32,39,160,26*7B
$GPGSV,3,2,11,29,35,059,34,03,19,281,15,25,14,051,17,27,01,194,*72
$GPGSV,3,3,11,193,,,,16,,,17,14,,,16*41
$GPRMC,005825.000,A,3729.3727,N,12647.0371,E,15.37,190.85,020519,,,A*53
$GPVTG,190.85,T,,M,15.37,N,28.48,K,A*3E
$GPGGA,005826.000,3729.3683,N,12647.0361,E,1,04,1.80,47.4,M,19.0,M,,*54
$GPGSA,A,3,29,31,26,32,,,,,,,,,2.05,1.80,0.99*00
$GPRMC,005826.000,A,3729.3683,N,12647.0361,E,15.88,191.83,020519,,,A*5D
$GPVTG,191.83,T,,M,15.88,N,29.42,K,A*36
$GPGGA,005827.000,3729.3640,N,12647.0351,E,1,04,1.80,47.2,M,19.0,M,,*5F
$GPGSA,A,3,29,31,26,32,,,,,,,,,2.05,1.80,0.99*00
$GPRMC,005827.000,A,3729.3640,N,12647.0351,E,15.31,190.25,020519,,,A*5F
$GPVTG,190.25,T,,M,15.31,N,28.37,K,A*3A
$GPGGA,005828.000,3729.3596,N,12647.0349,E,1,04,1.80,47.3,M,19.0,M,,*50
$GPGSA,A,3,29,31,26,32,,,,,,,,,2.05,1.80,0.99*00
$GPRMC,005828.000,A,3729.3596,N,12647.0349,E,15.20,188.87,020519,,,A*50
$GPVTG,188.87,T,,M,15.20,N,28.17,K,A*39
$GPGGA,005829.000,3729.3553,N,12647.0345,E,1,04,1.80,47.4,M,19.0,M,,*53
$GPGSA,A,3,29,31,26,32,,,,,,,,,2.05,1.80,0.99*00
$GPRMC,005829.000,A,3729.3553,N,12647.0345,E,15.05,189.08,020519,,,A*55
$GPVTG,189.08,T,,M,15.05,N,27.88,K,A*31
$GPGGA,005830.000,3729.3513,N,12647.0336,E,1,04,1.80,47.3,M,19.0,M,,*5C
$GPGSA,A,3,29,31,26,32,,,,,,,,,2.05,1.80,0.99*00
$GPGSV,3,1,11,31,67,037,19,26,66,262,19,32,39,160,19,29,35,059,20*79
$GPGSV,3,2,11,03,19,281,18,25,14,051,18,44,13,251,,27,01,194,*72
$GPGSV,3,3,11,193,,,,16,,,13,14,,,18*4B
$GPRMC,005830.000,A,3729.3513,N,12647.0336,E,14.87,189.74,020519,,,A*5D
$GPVTG,189.74,T,,M,14.87,N,27.55,K,A*31
$GPGGA,005831.000,3729.3475,N,12647.0325,E,1,04,1.80,47.2,M,19.0,M,,*5F
$GPGSA,A,3,29,31,26,32,,,,,,,,,2.05,1.80,0.99*00
$GPRMC,005831.000,A,3729.3475,N,12647.0325,E,14.35,190.89,020519,,,A*5C
$GPVTG,190.89,T,,M,14.35,N,26.60,K,A*35
$GPGGA,005832.000,3729.3439,N,12647.0318,E,1,04,1.80,47.1,M,19.0,M,,*59
$GPGSA,A,3,29,31,26,32,,,,,,,,,2.05,1.80,0.99*00
$GPRMC,005832.000,A,3729.3439,N,12647.0318,E,13.68,190.86,020519,,,A*59
$GPVTG,190.86,T,,M,13.68,N,25.35,K,A*36
$GPGGA,005833.000,3729.3403,N,12647.0321,E,1,04,1.80,47.2,M,19.0,M,,*58
$GPGSA,A,3,29,31,26,32,,,,,,,,,2.05,1.80,0.99*00
$GPRMC,005833.000,A,3729.3403,N,12647.0321,E,12.96,186.27,020519,,,A*57
$GPVTG,186.27,T,,M,12.96,N,24.01,K,A*3C
$GPGGA,005834.000,3729.3375,N,12647.0316,E,1,04,1.80,47.3,M,19.0,M,,*5C
$GPGSA,A,3,29,31,26,32,,,,,,,,,2.05,1.80,0.99*00
$GPRMC,005834.000,A,3729.3375,N,12647.0316,E,11.67,188.24,020519,,,A*52
$GPVTG,188.24,T,,M,11.67,N,21.62,K,A*3C
$GPGGA,005835.000,3729.3347,N,12647.0313,E,1,04,1.80,47.5,M,19.0,M,,*5F
$GPGSA,A,3,29,31,26,32,,,,,,,,,2.05,1.80,0.99*00
$GPGSV,3,1,11,31,67,037,18,26,66,262,31,32,39,160,20,29,35,059,16*7D
$GPGSV,3,2,11,03,19,281,27,25,14,052,15,44,13,251,,27,01,194,*70
$GPGSV,3,3,11,193,,,,16,,,15,14,,,17*42
$GPRMC,005835.000,A,3729.3347,N,12647.0313,E,10.60,188.00,020519,,,A*57
$GPVTG,188.00,T,,M,10.60,N,19.63,K,A*36
$GPGGA,005836.000,3729.3325,N,12647.0309,E,1,04,1.80,47.8,M,19.0,M,,*5E
$GPGSA,A,3,29,31,26,32,,,,,,,,,2.05,1.80,0.99*00
$GPRMC,005836.000,A,3729.3325,N,12647.0309,E,9.28,191.52,020519,,,A*60
$GPVTG,191.52,T,,M,9.28,N,17.20,K,A*04
$GPGGA,005837.000,3729.3308,N,12647.0317,E,1,04,1.80,48.2,M,19.0,M,,*5A
$GPGSA,A,3,29,31,26,32,,,,,,,,,2.05,1.80,0.99*00
$GPRMC,005837.000,A,3729.3308,N,12647.0317,E,7.65,183.82,020519,,,A*68
$GPVTG,183.82,T,,M,7.65,N,14.17,K,A*0A
$GPGGA,005838.000,3729.3286,N,12647.0311,E,1,04,1.80,48.3,M,19.0,M,,*55
$GPGSA,A,3,29,31,26,32,,,,,,,,,2.05,1.80,0.99*00
$GPRMC,005838.000,A,3729.3286,N,12647.0311,E,8.55,193.75,020519,,,A*63
$GPVTG,193.75,T,,M,8.55,N,15.84,K,A*04
$GPGGA,005839.000,3729.3262,N,12647.0303,E,1,04,1.80,48.2,M,19.0,M,,*5C
$GPGSA,A,3,29,31,26,32,,,,,,,,,2.05,1.80,0.99*00
$GPRMC,005839.000,A,3729.3262,N,12647.0303,E,9.93,192.22,020519,,,A*63
$GPVTG,192.22,T,,M,9.93,N,18.41,K,A*08
$GPGGA,005840.000,3729.3234,N,12647.0293,E,1,04,1.80,47.7,M,19.0,M,,*53
$GPGSA,A,3,29,31,26,32,,,,,,,,,2.05,1.80,0.99*00
$GPGSV,3,1,11,31,67,037,18,26,66,262,17,32,39,160,23,29,35,059,34*7A
$GPGSV,3,2,11,03,19,281,15,25,14,052,13,40,12,252,,27,01,194,*71
$GPGSV,3,3,11,193,,,,16,,,15,14,,,16*43
$GPRMC,005840.000,A,3729.3234,N,12647.0293,E,11.02,195.66,020519,,,A*50
$GPVTG,195.66,T,,M,11.02,N,20.41,K,A*35
$GPGGA,005841.000,3729.3206,N,12647.0281,E,1,04,1.80,46.9,M,19.0,M,,*5F
$GPGSA,A,3,29,31,26,32,,,,,,,,,2.05,1.80,0.99*00
$GPRMC,005841.000,A,3729.3206,N,12647.0281,E,10.68,195.44,020519,,,A*5E
$GPVTG,195.44,T,,M,10.68,N,19.78,K,A*38
$GPGGA,005842.000,3729.3181,N,12647.0272,E,1,04,1.80,46.2,M,19.0,M,,*57
$GPGSA,A,3,29,31,26,32,,,,,,,,,2.05,1.80,0.99*00
$GPRMC,005842.000,A,3729.3181,N,12647.0272,E,9.94,193.62,020519,,,A*64
$GPVTG,193.62,T,,M,9.94,N,18.41,K,A*0A
$GPGGA,005843.000,3729.3155,N,12647.0266,E,1,04,1.80,45.7,M,19.0,M,,*5C
$GPGSA,A,3,29,31,26,32,,,,,,,,,2.05,1.80,0.99*00
$GPRMC,005843.000,A,3729.3155,N,12647.0266,E,10.14,193.54,020519,,,A*5C
$GPVTG,193.54,T,,M,10.14,N,18.79,K,A*34
$GPGGA,005844.000,3729.3125,N,12647.0253,E,1,04,1.80,44.7,M,19.0,M,,*5B
$GPGSA,A,3,29,31,26,32,,,,,,,,,2.05,1.80,0.99*00
$GPRMC,005844.000,A,3729.3125,N,12647.0253,E,11.58,196.88,020519,,,A*57
$GPVTG,196.88,T,,M,11.58,N,21.45,K,A*3C
$GPGGA,005845.000,3729.3092,N,12647.0245,E,1,04,1.80,44.4,M,19.0,M,,*53
$GPGSA,A,3,29,31,26,32,,,,,,,,,2.05,1.80,0.99*00
$GPGSV,3,1,11,31,67,037,21,26,66,262,22,32,38,160,21,29,35,059,35*74
$GPGSV,3,2,11,03,19,281,15,25,14,052,14,40,12,252,,27,01,194,*76
$GPGSV,3,3,11,193,,,,16,,,15,14,,,18*4D
$GPRMC,005845.000,A,3729.3092,N,12647.0245,E,12.12,195.06,020519,,,A*54
$GPVTG,195.06,T,,M,12.12,N,22.46,K,A*34
$GPGGA,005846.000,3729.3059,N,12647.0232,E,1,04,1.80,43.9,M,19.0,M,,*5D
$GPGSA,A,3,29,31,26,32,,,,,,,,,2.05,1.80,0.99*00
$GPRMC,005846.000,A,3729.3059,N,12647.0232,E,12.62,196.05,020519,,,A*57
$GPVTG,196.05,T,,M,12.62,N,23.39,K,A*3A
$GPGGA,005847.000,3729.3024,N,12647.0219,E,1,04,1.80,43.5,M,19.0,M,,*53
$GPGSA,A,3,29,31,26,32,,,,,,,,,2.05,1.80,0.99*00
$GPRMC,005847.000,A,3729.3024,N,12647.0219,E,12.67,193.05,020519,,,A*55
$GPVTG,193.05,T,,M,12.67,N,23.48,K,A*3C
$GPGGA,005848.000,3729.2988,N,12647.0206,E,1,04,1.80,43.1,M,19.0,M,,*58
$GPGSA,A,3,29,31,26,32,,,,,,,,,2.05,1.80,0.99*00
$GPRMC,005848.000,A,3729.2988,N,12647.0206,E,12.88,191.50,020519,,,A*59
$GPVTG,191.50,T,,M,12.88,N,23.87,K,A*3C
$GPGGA,005849.000,3729.2955,N,12647.0196,E,1,04,1.80,43.0,M,19.0,M,,*52
$GPGSA,A,3,29,31,26,32,,,,,,,,,2.05,1.80,0.99*00
$GPRMC,005849.000,A,3729.2955,N,12647.0196,E,12.48,191.36,020519,,,A*5E
$GPVTG,191.36,T,,M,12.48,N,23.13,K,A*3D
$GPGGA,005850.000,3729.2923,N,12647.0186,E,1,04,1.80,42.9,M,19.0,M,,*52
$GPGSA,A,3,29,31,26,32,,,,,,,,,2.05,1.80,0.99*00
$GPGSV,3,1,11,31,67,037,19,26,66,262,33,32,38,160,18,29,35,059,30*70
$GPGSV,3,2,11,03,19,281,16,25,14,052,14,27,01,194,,193,,,*7C
$GPGSV,3,3,11,34,,,,16,,,18,14,,,17*73
$GPRMC,005850.000,A,3729.2923,N,12647.0186,E,12.28,191.20,020519,,,A*57
$GPVTG,191.20,T,,M,12.28,N,22.75,K,A*3D
$GPGGA,005851.000,3729.2888,N,12647.0176,E,1,04,1.80,42.9,M,19.0,M,,*5C
$GPGSA,A,3,29,31,26,32,,,,,,,,,2.05,1.80,0.99*00
$GPRMC,005851.000,A,3729.2888,N,12647.0176,E,12.84,192.88,020519,,,A*5E
$GPVTG,192.88,T,,M,12.84,N,23.79,K,A*37
$GPGGA,005852.000,3729.2851,N,12647.0166,E,1,04,1.80,42.9,M,19.0,M,,*5A
$GPGSA,A,3,29,31,26,32,,,,,,,,,2.05,1.80,0.99*00
$GPRMC,005852.000,A,3729.2851,N,12647.0166,E,13.10,192.84,020519,,,A*58
$GPVTG,192.84,T,,M,13.10,N,24.27,K,A*3B
$GPGGA,005853.000,3729.2813,N,12647.0154,E,1,04,1.80,43.0,M,19.0,M,,*54
$GPGSA,A,3,29,31,26,32,,,,,,,,,2.05,1.80,0.99*00
$GPRMC,005853.000,A,3729.2813,N,12647.0154,E,13.32,193.81,020519,,,A*5A
$GPVTG,193.81,T,,M,13.32,N,24.68,K,A*34
$GPGGA,005854.000,3729.2776,N,12647.0142,E,1,04,1.80,43.0,M,19.0,M,,*58
$GPGSA,A,3,29,31,26,32,,,,,,,,,2.05,1.80,0.99*00
$GPRMC,005854.000,A,3729.2776,N,12647.0142,E,13.43,193.86,020519,,,A*57
$GPVTG,193.86,T,,M,13.43,N,24.89,K,A*3A
$GPGGA,005855.000,3729.2729,N,12647.0137,E,1,04,1.80,43.0,M,19.0,M,,*51
$GPGSA,A,3,29,31,26,32,,,,,,,,,2.05,1.80,0.99*00
$GPGSV,3,1,11,31,67,037,19,26,66,262,30,32,38,160,22,29,35,059,34*7E
$GPGSV,3,2,11,03,19,281,18,25,14,052,15,27,01,194,,193,,,*73
$GPGSV,3,3,11,35,,,,16,,,26,14,,,16*7E
$GPRMC,005855.000,A,3729.2729,N,12647.0137,E,13.42,189.81,020519,,,A*53
$GPVTG,189.81,T,,M,13.42,N,24.87,K,A*39
$GPGGA,005856.000,3729.2691,N,12647.0128,E,1,04,1.80,42.9,M,19.0,M,,*56
$GPGSA,A,3,29,31,26,32,,,,,,,,,2.05,1.80,0.99*00
$GPRMC,005856.000,A,3729.2691,N,12647.0128,E,13.29,190.90,020519,,,A*59
$GPVTG,190.90,T,,M,13.29,N,24.63,K,A*36
$GPGGA,005857.000,3729.2653,N,12647.0121,E,1,04,1.80,42.6,M,19.0,M,,*5F
$GPGSA,A,3,29,31,26,32,,,,,,,,,2.05,1.80,0.99*00
$GPRMC,005857.000,A,3729.2653,N,12647.0121,E,12.99,189.10,020519,,,A*55
$GPVTG,189.10,T,,M,12.99,N,24.08,K,A*31
$GPGGA,005858.000,3729.2616,N,12647.0117,E,1,04,1.80,42.2,M,19.0,M,,*50
$GPGSA,A,3,29,31,26,32,,,,,,,,,2.05,1.80,0.99*00
$GPRMC,005858.000,A,3729.2616,N,12647.0117,E,12.59,186.37,020519,,,A*58
$GPVTG,186.37,T,,M,12.59,N,23.32,K,A*39
$GPGGA,005859.000,3729.2582,N,12647.0113,E,1,04,1.80,42.3,M,19.0,M,,*5A
$GPGSA,A,3,29,31,26,32,,,,,,,,,2.05,1.80,0.99*00
$GPRMC,005859.000,A,3729.2582,N,12647.0113,E,12.20,185.40,020519,,,A*5E
$GPVTG,185.40,T,,M,12.20,N,22.61,K,A*33
$GPGGA,005900.000,3729.2548,N,12647.0108,E,1,04,1.80,42.5,M,19.0,M,,*5D
$GPGSA,A,3,29,31,26,32,,,,,,,,,2.05,1.80,0.99*00
$GPGSV,3,1,11,31,67,037,19,26,66,262,30,32,38,160,19,29,35,059,27*74
$GPGSV,3,2,11,03,19,281,20,25,14,052,15,27,01,194,,193,,,*78
$GPGSV,3,3,11,36,,,,16,,,24,14,,,15*7C
$GPRMC,005900.000,A,3729.2548,N,12647.0108,E,12.10,188.33,020519,,,A*55
$GPVTG,188.33,T,,M,12.10,N,22.42,K,A*38
$GPGGA,005901.000,3729.2520,N,12647.0098,E,1,04,1.80,42.6,M,19.0,M,,*59
$GPGSA,A,3,29,31,26,32,,,,,,,,,2.05,1.80,0.99*00
$GPRMC,005901.000,A,3729.2520,N,12647.0098,E,11.43,191.33,020519,,,A*5F
$GPVTG,191.33,T,,M,11.43,N,21.18,K,A*39
$GPGGA,005902.000,3729.2489,N,12647.0091,E,1,04,1.80,42.8,M,19.0,M,,*5F
$GPGSA,A,3,29,31,26,32,,,,,,,,,2.05,1.80,0.99*00
$GPRMC,005902.000,A,3729.2489,N,12647.0091,E,11.32,191.35,020519,,,A*57
$GPVTG,191.35,T,,M,11.32,N,20.98,K,A*30
$GPGGA,005903.000,3729.2460,N,12647.0084,E,1,04,1.80,43.0,M,19.0,M,,*54
$GPGSA,A,3,29,31,26,32,,,,,,,,,2.05,1.80,0.99*00
$GPRMC,005903.000,A,3729.2460,N,12647.0084,E,10.83,190.33,020519,,,A*59
$GPVTG,190.33,T,,M,10.83,N,20.07,K,A*3A
$GPGGA,005904.000,3729.2431,N,12647.0080,E,1,04,1.80,43.3,M,19.0,M,,*50
$GPGSA,A,3,29,31,26,32,,,,,,,,,2.05,1.80,0.99*00
$GPRMC,005904.000,A,3729.2431,N,12647.0080,E,10.33,188.79,020519,,,A*52
$GPVTG,188.79,T,,M,10.33,N,19.15,K,A*3F
$GPGGA,005905.000,3729.2404,N,12647.0075,E,1,04,1.80,44.1,M,19.0,M,,*58
$GPGSA,A,3,29,31,26,32,,,,,,,,,2.05,1.80,0.99*00
$GPGSV,3,1,11,31,67,037,18,26,66,262,33,32,38,160,20,29,35,059,35*7F
$GPGSV,3,2,11,03,19,281,19,25,14,052,16,27,01,194,,193,,,*71
$GPGSV,3,3,11,36,,,,16,,,20,14,,,14*79
$GPRMC,005905.000,A,3729.2404,N,12647.0075,E,9.85,191.73,020519,,,A*68
$GPVTG,191.73,T,,M,9.85,N,18.26,K,A*09
$GPGGA,005906.000,3729.2384,N,12647.0064,E,1,04,1.80,44.6,M,19.0,M,,*53
$GPGSA,A,3,29,31,26,32,,,,,,,,,2.05,1.80,0.99*00
$GPRMC,005906.000,A,3729.2384,N,12647.0064,E,9.67,195.90,020519,,,A*61
$GPVTG,195.90,T,,M,9.67,N,17.91,K,A*0F
$GPGGA,005907.000,3729.2353,N,12647.0059,E,1,04,1.80,45.3,M,19.0,M,,*52
$GPGSA,A,3,29,31,26,32,,,,,,,,,2.05,1.80,0.99*00
$GPRMC,005907.000,A,3729.2353,N,12647.0059,E,9.98,195.84,020519,,,A*61
$GPVTG,195.84,T,,M,9.98,N,18.49,K,A*00
$GPGGA,005908.000,3729.2317,N,12647.0057,E,1,04,1.80,46.0,M,19.0,M,,*53
$GPGSA,A,3,29,31,26,32,,,,,,,,,2.05,1.80,0.99*00
$GPRMC,005908.000,A,3729.2317,N,12647.0057,E,10.07,192.93,020519,,,A*5F
$GPVTG,192.93,T,,M,10.07,N,18.66,K,A*32
$GPGGA,005909.000,3729.2283,N,12647.0055,E,1,04,1.80,46.6,M,19.0,M,,*5A
$GPGSA,A,3,29,31,26,32,,,,,,,,,2.05,1.80,0.99*00
$GPRMC,005909.000,A,3729.2283,N,12647.0055,E,10.13,192.00,020519,,,A*5F
$GPVTG,192.00,T,,M,10.13,N,18.77,K,A*3D
$GPGGA,005910.000,3729.2252,N,12647.0052,E,1,04,1.80,46.9,M,19.0,M,,*56
$GPGSA,A,3,29,31,26,32,,,,,,,,,2.05,1.80,0.99*00
$GPGSV,3,1,11,31,67,037,19,26,66,262,34,32,38,160,25,29,35,059,22*7A
$GPGSV,3,2,11,03,19,281,20,25,14,052,16,27,01,194,,193,,,*7B
$GPGSV,3,3,11,38,,,,16,,,14,14,,,15*71
$GPRMC,005910.000,A,3729.2252,N,12647.0052,E,9.89,190.48,020519,,,A*69
$GPVTG,190.48,T,,M,9.89,N,18.32,K,A*09
$GPGGA,005911.000,3729.2227,N,12647.0050,E,1,04,1.80,47.0,M,19.0,M,,*5F
$GPGSA,A,3,29,31,26,32,,,,,,,,,2.05,1.80,0.99*00
$GPRMC,005911.000,A,3729.2227,N,12647.0050,E,8.76,187.64,020519,,,A*61
$GPVTG,187.64,T,,M,8.76,N,16.23,K,A*0E
$GPGGA,005912.000,3729.2207,N,12647.0050,E,1,04,3.10,47.1,M,19.0,M,,*54
$GPGSA,A,3,29,31,26,32,,,,,,,,,6.99,3.10,6.27*09
$GPRMC,005912.000,A,3729.2207,N,12647.0050,E,6.88,180.93,020519,,,A*60
$GPVTG,180.93,T,,M,6.88,N,12.75,K,A*09
$GPGGA,005913.000,3729.2192,N,12647.0049,E,1,04,1.80,47.2,M,19.0,M,,*5A
$GPGSA,A,3,29,31,26,32,,,,,,,,,2.05,1.80,0.99*00
$GPRMC,005913.000,A,3729.2192,N,12647.0049,E,5.13,182.17,020519,,,A*69
$GPVTG,182.17,T,,M,5.13,N,9.51,K,A*3A
$GPGGA,005914.000,3729.2179,N,12647.0049,E,1,04,1.80,47.3,M,19.0,M,,*59
$GPGSA,A,3,29,31,26,32,,,,,,,,,2.05,1.80,0.99*00
$GPRMC,005914.000,A,3729.2179,N,12647.0049,E,4.44,180.52,020519,,,A*6B
$GPVTG,180.52,T,,M,4.44,N,8.23,K,A*3E
$GPGGA,005915.000,3729.2167,N,12647.0050,E,1,04,1.80,47.3,M,19.0,M,,*5F
$GPGSA,A,3,29,31,26,32,,,,,,,,,2.05,1.80,0.99*00
$GPGSV,3,1,11,31,67,037,19,26,66,263,18,14,58,164,16,32,38,160,26*7B
$GPGSV,3,2,11,29,34,059,34,03,19,281,22,25,14,052,15,27,02,194,*75
$GPGSV,3,3,11,193,,,,41,,,,16,,,13*42
$GPRMC,005915.000,A,3729.2167,N,12647.0050,E,4.07,175.41,020519,,,A*62
$GPVTG,175.41,T,,M,4.07,N,7.55,K,A*3F
$GPGGA,005916.000,3729.2157,N,12647.0050,E,1,04,1.80,47.3,M,19.0,M,,*5F
$GPGSA,A,3,29,31,26,32,,,,,,,,,2.05,1.80,0.99*00
$GPRMC,005916.000,A,3729.2157,N,12647.0050,E,3.73,179.37,020519,,,A*6B
$GPVTG,179.37,T,,M,3.73,N,6.91,K,A*3F
$GPGGA,005917.000,3729.2148,N,12647.0050,E,1,04,1.80,47.3,M,19.0,M,,*50
$GPGSA,A,3,29,31,26,32,,,,,,,,,2.05,1.80,0.99*00
$GPRMC,005917.000,A,3729.2148,N,12647.0050,E,3.47,178.12,020519,,,A*65
$GPVTG,178.12,T,,M,3.47,N,6.44,K,A*36
$GPGGA,005918.000,3729.2141,N,12647.0049,E,1,04,1.80,47.4,M,19.0,M,,*59
$GPGSA,A,3,29,31,26,32,,,,,,,,,2.05,1.80,0.99*00
$GPRMC,005918.000,A,3729.2141,N,12647.0049,E,3.09,180.88,020519,,,A*65
$GPVTG,180.88,T,,M,3.09,N,5.73,K,A*3F
$GPGGA,005919.000,3729.2135,N,12647.0051,E,1,04,1.80,47.4,M,19.0,M,,*52
$GPGSA,A,3,29,31,26,32,,,,,,,,,2.05,1.80,0.99*00
$GPRMC,005919.000,A,3729.2135,N,12647.0051,E,2.64,168.28,020519,,,A*68
$GPVTG,168.28,T,,M,2.64,N,4.89,K,A*3D
$GPGGA,005920.000,3729.2130,N,12647.0053,E,1,04,1.80,47.5,M,19.0,M,,*5E
$GPGSA,A,3,29,31,26,32,,,,,,,,,2.05,1.80,0.99*00
$GPGSV,3,1,11,31,67,038,19,26,66,263,16,14,58,164,16,32,38,160,20*7C
$GPGSV,3,2,11,29,34,059,35,03,19,281,17,25,14,052,15,27,02,194,*72
$GPGSV,3,3,11,193,,,,43,,,,16,,,15*46
$GPRMC,005920.000,A,3729.2130,N,12647.0053,E,2.41,167.43,020519,,,A*60
$GPVTG,167.43,T,,M,2.41,N,4.46,K,A*3B
$GPGGA,005921.000,3729.2130,N,12647.0057,E,1,04,1.80,47.6,M,19.0,M,,*58
$GPGSA,A,3,29,31,26,32,,,,,,,,,2.05,1.80,0.99*00
$GPRMC,005921.000,A,3729.2130,N,12647.0057,E,1.87,134.84,020519,,,A*61
$GPVTG,134.84,T,,M,1.87,N,3.46,K,A*38
$GPGGA,005922.000,3729.2129,N,12647.0060,E,1,04,1.80,47.6,M,19.0,M,,*57
$GPGSA,A,3,29,31,26,32,,,,,,,,,2.05,1.80,0.99*00
$GPRMC,005922.000,A,3729.2129,N,12647.0060,E,1.63,131.99,020519,,,A*6D
$GPVTG,131.99,T,,M,1.63,N,3.02,K,A*3B
$GPGGA,005923.000,3729.2130,N,12647.0062,E,1,04,1.80,47.5,M,19.0,M,,*5F
$GPGSA,A,3,29,31,26,32,,,,,,,,,2.05,1.80,0.99*00
$GPRMC,005923.000,A,3729.2130,N,12647.0062,E,1.38,125.01,020519,,,A*6C
$GPVTG,125.01,T,,M,1.38,N,2.55,K,A*32
$GPGGA,005924.000,3729.2132,N,12647.0063,E,1,04,1.80,47.3,M,19.0,M,,*5D
$GPGSA,A,3,29,31,26,32,,,,,,,,,2.05,1.80,0.99*00
$GPRMC,005924.000,A,3729.2132,N,12647.0063,E,1.01,120.29,020519,,,A*6D
$GPVTG,120.29,T,,M,1.01,N,1.88,K,A*34
$GPGGA,005925.000,3729.2130,N,12647.0066,E,1,04,1.80,47.4,M,19.0,M,,*5C
$GPGSA,A,3,29,31,26,32,,,,,,,,,2.05,1.80,0.99*00
$GPGSV,3,1,11,31,67,038,18,26,66,263,13,14,58,164,12,32,38,160,20*7C
$GPGSV,3,2,11,29,34,059,33,03,19,281,16,25,14,052,14,27,02,194,*74
$GPGSV,3,3,11,193,,,,43,,,,16,,,15*46
$GPRMC,005925.000,A,3729.2130,N,12647.0066,E,0.94,109.39,020519,,,A*6C
$GPVTG,109.39,T,,M,0.94,N,1.73,K,A*37
$GPGGA,005926.000,3729.2129,N,12647.0070,E,1,04,1.80,47.5,M,19.0,M,,*51
$GPGSA,A,3,29,31,26,32,,,,,,,,,2.05,1.80,0.99*00
$GPRMC,005926.000,A,3729.2129,N,12647.0070,E,0.91,107.24,020519,,,A*67
$GPVTG,107.24,T,,M,0.91,N,1.69,K,A*3B
$GPGGA,005927.000,3729.2129,N,12647.0073,E,1,04,1.80,47.5,M,19.0,M,,*53
$GPGSA,A,3,29,31,26,32,,,,,,,,,2.05,1.80,0.99*00
$GPRMC,005927.000,A,3729.2129,N,12647.0073,E,1.08,110.56,020519,,,A*67
$GPVTG,110.56,T,,M,1.08,N,2.00,K,A*35
$GPGGA,005928.000,3729.2128,N,12647.0076,E,1,04,1.80,47.6,M,19.0,M,,*5B
$GPGSA,A,3,29,31,26,32,,,,,,,,,2.05,1.80,0.99*00
$GPRMC,005928.000,A,3729.2128,N,12647.0076,E,1.26,99.02,020519,,,A*51
$GPVTG,99.02,T,,M,1.26,N,2.34,K,A*0F
$GPGGA,005929.000,3729.2127,N,12647.0081,E,1,04,1.80,47.6,M,19.0,M,,*5D
$GPGSA,A,3,29,31,26,32,,,,,,,,,2.05,1.80,0.99*00
$GPRMC,005929.000,A,3729.2127,N,12647.0081,E,1.74,89.05,020519,,,A*56
$GPVTG,89.05,T,,M,1.74,N,3.22,K,A*08
$GPGGA,005930.000,3729.2127,N,12647.0087,E,1,04,1.80,47.7,M,19.0,M,,*52
$GPGSA,A,3,29,31,26,32,,,,,,,,,2.05,1.80,0.99*00
$GPGSV,3,1,11,31,67,038,22,26,66,263,18,14,58,164,17,32,38,160,21*7A
$GPGSV,3,2,11,29,34,059,27,03,19,281,16,25,14,052,14,27,02,194,*71
$GPGSV,3,3,11,193,,,,45,,,,16,,,15*40
$GPRMC,005930.000,A,3729.2127,N,12647.0087,E,2.17,93.93,020519,,,A*5A
$GPVTG,93.93,T,,M,2.17,N,4.02,K,A*0F
$GPGGA,005931.000,3729.2128,N,12647.0091,E,1,04,1.80,46.4,M,19.0,M,,*59
$GPGSA,A,3,29,31,26,32,,,,,,,,,2.05,1.80,0.99*00
$GPRMC,005931.000,A,3729.2128,N,12647.0091,E,1.40,104.85,020519,,,A*6A
$GPVTG,104.85,T,,M,1.40,N,2.59,K,A*3E
$GPGGA,005932.000,3729.2128,N,12647.0099,E,1,04,1.80,45.4,M,19.0,M,,*51
$GPGSA,A,3,29,31,26,32,,,,,,,,,2.05,1.80,0.99*00
$GPRMC,005932.000,A,3729.2128,N,12647.0099,E,1.47,96.07,020519,,,A*56
$GPVTG,96.07,T,,M,1.47,N,2.73,K,A*01
$GPGGA,005933.000,3729.2130,N,12647.0102,E,1,03,3.58,43.7,M,19.0,M,,*5F
$GPGSA,A,2,29,31,32,,,,,,,,,,3.72,3.58,1.00*02
$GPRMC,005933.000,A,3729.2130,N,12647.0102,E,1.25,84.94,020519,,,A*50
$GPVTG,84.94,T,,M,1.25,N,2.32,K,A*09
$GPGGA,005934.000,3729.2130,N,12647.0107,E,1,03,3.58,42.9,M,19.0,M,,*52
$GPGSA,A,2,29,31,32,,,,,,,,,,3.72,3.58,1.00*02
$GPRMC,005934.000,A,3729.2130,N,12647.0107,E,0.91,98.95,020519,,,A*50
$GPVTG,98.95,T,,M,0.91,N,1.70,K,A*0E
$GPGGA,005935.000,3729.2131,N,12647.0116,E,1,03,3.59,42.5,M,19.0,M,,*5F
$GPGSA,A,2,29,31,32,,,,,,,,,,3.72,3.59,1.00*03
$GPGSV,3,1,11,31,67,038,24,26,66,263,,14,57,164,18,32,38,160,22*76
$GPGSV,3,2,11,29,34,059,27,03,19,281,17,25,14,052,15,27,02,194,*71
$GPGSV,3,3,11,193,,,,46,,,,16,,,18*4E
$GPRMC,005935.000,A,3729.2131,N,12647.0116,E,1.12,91.47,020519,,,A*5C
$GPVTG,91.47,T,,M,1.12,N,2.07,K,A*01
$GPGGA,005936.000,3729.2131,N,12647.0127,E,1,03,3.59,42.0,M,19.0,M,,*5B
$GPGSA,A,2,29,31,32,,,,,,,,,,3.72,3.59,1.00*03
$GPRMC,005936.000,A,3729.2131,N,12647.0127,E,1.49,89.92,020519,,,A*52
$GPVTG,89.92,T,,M,1.49,N,2.77,K,A*09
$GPGGA,005937.000,3729.2133,N,12647.0132,E,1,03,3.59,41.7,M,19.0,M,,*58
$GPGSA,A,2,29,31,32,,,,,,,,,,3.73,3.59,1.00*02
$GPRMC,005937.000,A,3729.2133,N,12647.0132,E,1.01,135.04,020519,,,A*60
$GPVTG,135.04,T,,M,1.01,N,1.88,K,A*3F
$GPGGA,005938.000,3729.2129,N,12647.0134,E,1,03,3.59,41.0,M,19.0,M,,*5D
$GPGSA,A,2,29,31,32,,,,,,,,,,3.73,3.59,1.00*02
$GPRMC,005938.000,A,3729.2129,N,12647.0134,E,1.33,174.00,020519,,,A*62
$GPVTG,174.00,T,,M,1.33,N,2.47,K,A*3F
$GPGGA,005939.000,3729.2123,N,12647.0135,E,1,03,3.59,40.8,M,19.0,M,,*5E
$GPGSA,A,2,29,31,32,,,,,,,,,,3.73,3.59,1.00*02
$GPRMC,005939.000,A,3729.2123,N,12647.0135,E,1.87,195.21,020519,,,A*6B
$GPVTG,195.21,T,,M,1.87,N,3.46,K,A*3C
$GPGGA,005940.000,3729.2117,N,12647.0129,E,1,03,3.59,40.8,M,19.0,M,,*5A
$GPGSA,A,2,29,31,32,,,,,,,,,,3.73,3.59,1.00*02
$GPGSV,3,1,11,31,67,038,23,26,66,263,,14,57,164,22,32,38,160,24*7E
$GPGSV,3,2,11,29,34,059,26,03,19,281,15,25,14,052,16,27,02,194,*71
$GPGSV,3,3,11,193,,,,47,,,,16,,,15*42
$GPRMC,005940.000,A,3729.2117,N,12647.0129,E,2.47,204.91,020519,,,A*60
$GPVTG,204.91,T,,M,2.47,N,4.57,K,A*34
$GPGGA,005941.000,3729.2106,N,12647.0120,E,1,03,3.60,40.7,M,19.0,M,,*57
$GPGSA,A,2,29,31,32,,,,,,,,,,3.73,3.60,1.00*08
$GPRMC,005941.000,A,3729.2106,N,12647.0120,E,3.84,207.33,020519,,,A*6D
$GPVTG,207.33,T,,M,3.84,N,7.11,K,A*30
$GPGGA,005942.000,3729.2093,N,12647.0106,E,1,03,3.59,40.7,M,19.0,M,,*57
$GPGSA,A,2,29,31,32,,,,,,,,,,3.73,3.59,1.00*02
$GPRMC,005942.000,A,3729.2093,N,12647.0106,E,5.00,204.82,020519,,,A*64
$GPVTG,204.82,T,,M,5.00,N,9.27,K,A*38
$GPGGA,005943.000,3729.2075,N,12647.0099,E,1,03,3.60,40.8,M,19.0,M,,*5C
$GPGSA,A,2,29,31,32,,,,,,,,,,3.73,3.60,1.00*08
$GPRMC,005943.000,A,3729.2075,N,12647.0099,E,5.50,196.83,020519,,,A*66
$GPVTG,196.83,T,,M,5.50,N,10.19,K,A*01
$GPGGA,005944.000,3729.2057,N,12647.0093,E,1,03,3.60,40.6,M,19.0,M,,*5F
$GPGSA,A,2,29,31,32,,,,,,,,,,3.74,3.60,1.00*0F
$GPRMC,005944.000,A,3729.2057,N,12647.0093,E,6.27,202.23,020519,,,A*6C
$GPVTG,202.23,T,,M,6.27,N,11.62,K,A*0B
$GPGGA,005945.000,3729.2038,N,12647.0080,E,1,03,3.60,40.9,M,19.0,M,,*5A
$GPGSA,A,2,29,31,32,,,,,,,,,,3.74,3.60,1.00*0F
$GPGSV,3,1,11,31,67,038,23,26,66,263,,14,57,164,21,32,38,160,21*78
$GPGSV,3,2,11,29,34,059,37,03,19,281,15,25,14,052,16,27,02,194,*71
$GPGSV,3,3,11,193,,,,49,,,,16,,,15*4C
$GPRMC,005945.000,A,3729.2038,N,12647.0080,E,6.25,200.84,020519,,,A*6B
$GPVTG,200.84,T,,M,6.25,N,11.58,K,A*0F
$GPGGA,005946.000,3729.2022,N,12647.0072,E,1,03,3.60,41.0,M,19.0,M,,*57
$GPGSA,A,2,29,31,32,,,,,,,,,,3.74,3.60,1.00*0F
$GPRMC,005946.000,A,3729.2022,N,12647.0072,E,6.08,201.83,020519,,,A*67
$GPVTG,201.83,T,,M,6.08,N,11.26,K,A*0F
$GPGGA,005947.000,3729.2006,N,12647.0065,E,1,03,3.60,41.2,M,19.0,M,,*54
$GPGSA,A,2,29,31,32,,,,,,,,,,3.74,3.60,1.00*0F
$GPRMC,005947.000,A,3729.2006,N,12647.0065,E,5.60,198.93,020519,,,A*69
$GPVTG,198.93,T,,M,5.60,N,10.39,K,A*0F
$GPGGA,005948.000,3729.1992,N,12647.0061,E,1,03,3.60,41.3,M,19.0,M,,*59
$GPGSA,A,2,29,31,32,,,,,,,,,,3.74,3.60,1.00*0F
$GPRMC,005948.000,A,3729.1992,N,12647.0061,E,5.01,197.29,020519,,,A*6C
$GPVTG,197.29,T,,M,5.01,N,9.28,K,A*3E
$GPGGA,005949.000,3729.1982,N,12647.0051,E,1,03,3.61,41.5,M,19.0,M,,*5D
$GPGSA,A,2,29,31,32,,,,,,,,,,3.74,3.61,1.00*0E
$GPRMC,005949.000,A,3729.1982,N,12647.0051,E,4.07,199.13,020519,,,A*6F
$GPVTG,199.13,T,,M,4.07,N,7.55,K,A*3A
$GPGGA,005950.000,3729.1975,N,12647.0043,E,1,03,3.61,41.6,M,19.0,M,,*5D
$GPGSA,A,2,29,31,32,,,,,,,,,,3.75,3.61,1.00*0F
$GPGSV,3,1,11,31,67,038,22,26,66,263,,14,57,164,21,32,38,160,23*7B
$GPGSV,3,2,11,29,34,058,38,03,19,281,14,25,14,052,21,27,02,194,*7A
$GPGSV,3,3,11,193,,,,49,,,,16,,,18*41
$GPRMC,005950.000,A,3729.1975,N,12647.0043,E,3.55,211.54,020519,,,A*6C
$GPVTG,211.54,T,,M,3.55,N,6.58,K,A*36
$GPGGA,005951.000,3729.1962,N,12647.0041,E,1,03,3.61,41.7,M,19.0,M,,*59
$GPGSA,A,2,29,31,32,,,,,,,,,,3.74,3.61,1.00*0E
$GPRMC,005951.000,A,3729.1962,N,12647.0041,E,3.50,195.33,020519,,,A*62
$GPVTG,195.33,T,,M,3.50,N,6.49,K,A*3D
$GPGGA,005952.000,3729.1950,N,12647.0036,E,1,04,1.80,41.7,M,19.0,M,,*51
$GPGSA,A,3,29,31,26,32,,,,,,,,,2.05,1.80,0.99*00
$GPRMC,005952.000,A,3729.1950,N,12647.0036,E,4.14,198.74,020519,,,A*69
$GPVTG,198.74,T,,M,4.14,N,7.67,K,A*39
$GPGGA,005953.000,3729.1946,N,12646.9999,E,1,04,1.80,40.8,M,19.0,M,,*5D
$GPGSA,A,3,29,31,26,32,,,,,,,,,2.05,1.80,0.99*00
$GPRMC,005953.000,A,3729.1946,N,12646.9999,E,4.29,210.58,020519,,,A*68
$GPVTG,210.58,T,,M,4.29,N,7.96,K,A*34
$GPGGA,005954.000,3729.1941,N,12646.9978,E,1,04,1.80,40.1,M,19.0,M,,*5B
$GPGSA,A,3,29,31,26,32,,,,,,,,,2.05,1.80,0.99*00
$GPRMC,005954.000,A,3729.1941,N,12646.9978,E,3.19,207.59,020519,,,A*64
$GPVTG,207.59,T,,M,3.19,N,5.91,K,A*32
$GPGGA,005955.000,3729.1934,N,12646.9961,E,1,04,1.80,39.6,M,19.0,M,,*59
$GPGSA,A,3,29,31,26,32,,,,,,,,,2.05,1.80,0.99*00
$GPGSV,3,1,11,31,67,039,20,26,66,263,28,14,57,164,21,42,44,158,*74
$GPGSV,3,2,11,32,38,160,24,29,34,058,37,03,19,281,19,25,14,052,22*7B
$GPGSV,3,3,11,27,02,194,,193,,,,16,,,19*76
$GPRMC,005955.000,A,3729.1934,N,12646.9961,E,2.60,192.93,020519,,,A*69
$GPVTG,192.93,T,,M,2.60,N,4.82,K,A*37
$GPGGA,005956.000,3729.1930,N,12646.9941,E,1,04,1.80,38.7,M,19.0,M,,*5C
$GPGSA,A,3,29,31,26,32,,,,,,,,,2.05,1.80,0.99*00
$GPRMC,005956.000,A,3729.1930,N,12646.9941,E,2.71,187.63,020519,,,A*67
$GPVTG,187.63,T,,M,2.71,N,5.03,K,A*34
$GPGGA,005957.000,3729.1925,N,12646.9931,E,1,04,1.80,38.4,M,19.0,M,,*5D
$GPGSA,A,3,29,31,26,32,,,,,,,,,2.05,1.80,0.99*00
$GPRMC,005957.000,A,3729.1925,N,12646.9931,E,1.86,169.03,020519,,,A*68
$GPVTG,169.03,T,,M,1.86,N,3.44,K,A*3C
$GPGGA,005958.000,3729.1927,N,12646.9919,E,1,04,1.80,38.0,M,19.0,M,,*5E
$GPGSA,A,3,29,31,26,32,,,,,,,,,2.05,1.80,0.99*00
$GPRMC,005958.000,A,3729.1927,N,12646.9919,E,0.63,173.15,020519,,,A*69
$GPVTG,173.15,T,,M,0.63,N,1.17,K,A*3E
$GPGGA,005959.000,3729.1930,N,12646.9910,E,1,04,1.80,37.7,M,19.0,M,,*58
$GPGSA,A,3,29,31,26,32,,,,,,,,,2.05,1.80,0.99*00
$GPRMC,005959.000,A,3729.1930,N,12646.9910,E,0.23,131.93,020519,,,A*6B
$GPVTG,131.93,T,,M,0.23,N,0.44,K,A*35
$GPGGA,010000.000,3729.1932,N,12646.9905,E,1,04,1.80,37.5,M,19.0,M,,*5D
$GPGSA,A,3,29,31,26,32,,,,,,,,,2.05,1.80,0.99*00
$GPGSV,3,1,11,31,67,039,23,26,66,263,27,14,57,164,19,50,42,151,*7F
$GPGSV,3,2,11,32,38,160,22,29,34,058,35,03,19,280,27,25,14,052,15*77
$GPGSV,3,3,11,27,02,194,,193,,,,16,,,22*7E
$GPRMC,010000.000,A,3729.1932,N,12646.9905,E,0.19,39.35,020519,,,A*50
$GPVTG,39.35,T,,M,0.19,N,0.35,K,A*0F
$GPGGA,010001.000,3729.1934,N,12646.9898,E,1,04,1.80,37.3,M,19.0,M,,*59
$GPGSA,A,3,29,31,26,32,,,,,,,,,2.05,1.80,0.99*00
$GPRMC,010001.000,A,3729.1934,N,12646.9898,E,0.26,328.82,020519,,,A*61
$GPVTG,328.82,T,,M,0.26,N,0.48,K,A*36
$GPGGA,010002.000,3729.1937,N,12646.9892,E,1,04,1.80,37.1,M,19.0,M,,*51
$GPGSA,A,3,29,31,26,32,,,,,,,,,2.05,1.80,0.99*00
$GPRMC,010002.000,A,3729.1937,N,12646.9892,E,0.30,328.29,020519,,,A*6D
$GPVTG,328.29,T,,M,0.30,N,0.56,K,A*3F
$GPGGA,010003.000,3729.1937,N,12646.9891,E,1,04,1.80,37.1,M,19.0,M,,*53
$GPGSA,A,3,29,31,26,32,,,,,,,,,2.05,1.80,0.99*00
$GPRMC,010003.000,A,3729.1937,N,12646.9891,E,0.06,18.97,020519,,,A*5F
$GPVTG,18.97,T,,M,0.06,N,0.10,K,A*0D
$GPGGA,010004.000,3729.1938,N,12646.9891,E,1,04,1.80,37.1,M,19.0,M,,*5B
$GPGSA,A,3,29,31,26,32,,,,,,,,,2.05,1.80,0.99*00
$GPRMC,010004.000,A,3729.1938,N,12646.9891,E,0.27,85.16,020519,,,A*59
$GPVTG,85.16,T,,M,0.27,N,0.50,K,A*07
$GPGGA,010005.000,3729.1938,N,12646.9892,E,1,04,1.80,37.2,M,19.0,M,,*5A
$GPGSA,A,3,29,31,26,32,,,,,,,,,2.05,1.80,0.99*00
$GPGSV,3,1,11,31,67,039,24,26,66,263,28,14,57,164,19,50,42,151,*77
$GPGSV,3,2,11,32,38,160,18,29,34,058,34,03,19,280,27,25,14,052,15*7F
$GPGSV,3,3,11,27,02,194,,193,,,,16,,,22*7E
$GPRMC,010005.000,A,3729.1938,N,12646.9892,E,0.40,197.02,020519,,,A*6D
$GPVTG,197.02,T,,M,0.40,N,0.74,K,A*37
$GPGGA,010006.000,3729.1937,N,12646.9892,E,1,04,1.80,37.2,M,19.0,M,,*56
$GPGSA,A,3,29,31,26,32,,,,,,,,,2.05,1.80,0.99*00
$GPRMC,010006.000,A,3729.1937,N,12646.9892,E,0.73,86.97,020519,,,A*5C
$GPVTG,86.97,T,,M,0.73,N,1.35,K,A*0E
$GPGGA,010007.000,3729.1943,N,12646.9886,E,1,04,1.80,36.8,M,19.0,M,,*5A
$GPGSA,A,3,29,31,26,32,,,,,,,,,2.05,1.80,0.99*00
$GPRMC,010007.000,A,3729.1943,N,12646.9886,E,0.33,113.40,020519,,,A*68
$GPVTG,113.40,T,,M,0.33,N,0.61,K,A*3D
$GPGGA,010008.000,3729.1946,N,12646.9881,E,1,04,1.80,36.6,M,19.0,M,,*59
$GPGSA,A,3,29,31,26,32,,,,,,,,,2.05,1.80,0.99*00
$GPRMC,010008.000,A,3729.1946,N,12646.9881,E,0.30,203.32,020519,,,A*61
$GPVTG,203.32,T,,M,0.30,N,0.56,K,A*3D
$GPGGA,010009.000,3729.1953,N,12646.9877,E,1,04,1.80,36.5,M,19.0,M,,*56
$GPGSA,A,3,29,31,26,32,,,,,,,,,2.05,1.80,0.99*00
$GPRMC,010009.000,A,3729.1953,N,12646.9877,E,0.18,40.88,020519,,,A*53
$GPVTG,40.88,T,,M,0.18,N,0.34,K,A*07
$GPGGA,010010.000,3729.1960,N,12646.9872,E,1,04,1.80,36.6,M,19.0,M,,*58
$GPGSA,A,3,29,31,26,32,,,,,,,,,2.05,1.80,0.99*00
$GPGSV,3,1,11,31,67,039,25,26,66,263,28,14,57,164,18,32,38,160,14*79
$GPGSV,3,2,11,29,34,058,33,03,19,280,24,25,14,052,17,44,13,251,*79
$GPGSV,3,3,11,27,02,194,,193,,,,16,,,22*7E
$GPRMC,010010.000,A,3729.1960,N,12646.9872,E,0.63,309.00,020519,,,A*6C
$GPVTG,309.00,T,,M,0.63,N,1.16,K,A*34
$GPGGA,010011.000,3729.1960,N,12646.9870,E,1,04,1.80,36.6,M,19.0,M,,*5B
$GPGSA,A,3,29,31,26,32,,,,,,,,,2.05,1.80,0.99*00
$GPRMC,010011.000,A,3729.1960,N,12646.9870,E,0.70,294.92,020519,,,A*63
$GPVTG,294.92,T,,M,0.70,N,1.30,K,A*3C
$GPGGA,010012.000,3729.1961,N,12646.9867,E,1,04,1.80,36.6,M,19.0,M,,*5F
$GPGSA,A,3,29,31,26,32,,,,,,,,,2.05,1.80,0.99*00
$GPRMC,010012.000,A,3729.1961,N,12646.9867,E,0.64,317.36,020519,,,A*66
$GPVTG,317.36,T,,M,0.64,N,1.20,K,A*3C
$GPGGA,010013.000,3729.1963,N,12646.9868,E,1,04,1.80,36.8,M,19.0,M,,*5D
$GPGSA,A,3,29,31,26,32,,,,,,,,,2.05,1.80,0.99*00
$GPRMC,010013.000,A,3729.1963,N,12646.9868,E,0.58,15.23,020519,,,A*50
$GPVTG,15.23,T,,M,0.58,N,1.08,K,A*0C
$GPGGA,010014.000,3729.1964,N,12646.9868,E,1,04,1.80,37.0,M,19.0,M,,*54
$GPGSA,A,3,29,31,26,32,,,,,,,,,2.05,1.80,0.99*00
$GPRMC,010014.000,A,3729.1964,N,12646.9868,E,0.60,358.09,020519,,,A*69
$GPVTG,358.09,T,,M,0.60,N,1.12,K,A*3E
$GPGGA,010015.000,3729.1965,N,12646.9868,E,1,04,3.09,37.2,M,19.0,M,,*55
$GPGSA,A,3,29,31,26,32,,,,,,,,,6.87,3.09,6.13*09
$GPGSV,3,1,11,31,67,039,26,26,66,263,29,14,57,164,18,32,38,160,16*79
$GPGSV,3,2,11,16,37,240,22,29,34,058,33,03,19,280,25,25,14,052,21*7C
$GPGSV,3,3,11,44,13,251,,27,02,194,,193,,,*4D
$GPRMC,010015.000,A,3729.1965,N,12646.9868,E,0.52,339.83,020519,,,A*6D
$GPVTG,339.83,T,,M,0.52,N,0.97,K,A*36
$GPGGA,010016.000,3729.1973,N,12646.9864,E,1,04,1.80,37.2,M,19.0,M,,*5E
$GPGSA,A,3,29,31,26,32,,,,,,,,,2.05,1.80,0.99*00
$GPRMC,010016.000,A,3729.1973,N,12646.9864,E,0.81,339.74,020519,,,A*63
$GPVTG,339.74,T,,M,0.81,N,1.49,K,A*32
$GPGGA,010017.000,3729.1986,N,12646.9855,E,1,04,1.80,37.4,M,19.0,M,,*51
$GPGSA,A,3,29,31,26,32,,,,,,,,,2.05,1.80,0.99*00
$GPRMC,010017.000,A,3729.1986,N,12646.9855,E,1.18,335.24,020519,,,A*62
$GPVTG,335.24,T,,M,1.18,N,2.19,K,A*3C
$GPGGA,010018.000,3729.1991,N,12646.9854,E,1,04,1.80,37.6,M,19.0,M,,*5B
$GPGSA,A,3,29,31,26,32,,,,,,,,,2.05,1.80,0.99*00
$GPRMC,010018.000,A,3729.1991,N,12646.9854,E,0.78,359.80,020519,,,A*69
$GPVTG,359.80,T,,M,0.78,N,1.44,K,A*34
$GPGGA,010019.000,3729.1986,N,12646.9863,E,1,05,1.35,39.2,M,19.0,M,,*5D
$GPGSA,A,3,29,31,03,26,32,,,,,,,,2.46,1.35,2.06*0E
$GPRMC,010019.000,A,3729.1986,N,12646.9863,E,0.10,71.69,020519,,,A*5A
$GPVTG,71.69,T,,M,0.10,N,0.19,K,A*0D
$GPGGA,010020.000,3729.1987,N,12646.9867,E,1,05,1.33,40.6,M,19.0,M,,*5E
$GPGSA,A,3,29,31,03,26,32,,,,,,,,1.61,1.33,0.90*03
$GPGSV,3,1,11,31,67,039,24,26,66,263,28,14,57,164,17,32,38,160,22*72
$GPGSV,3,2,11,16,37,240,23,29,34,058,33,03,19,280,24,25,14,052,24*79
$GPGSV,3,3,11,40,12,252,,27,02,194,,193,,,*4B
$GPRMC,010020.000,A,3729.1987,N,12646.9867,E,0.27,19.09,020519,,,A*59
$GPVTG,19.09,T,,M,0.27,N,0.51,K,A*0D
$GPGGA,010021.000,3729.1990,N,12646.9869,E,1,05,1.33,41.7,M,19.0,M,,*57
$GPGSA,A,3,29,31,03,26,32,,,,,,,,1.61,1.33,0.90*03
$GPRMC,010021.000,A,3729.1990,N,12646.9869,E,0.90,22.17,020519,,,A*5B
$GPVTG,22.17,T,,M,0.90,N,1.66,K,A*03
$GPGGA,010022.000,3729.1995,N,12646.9869,E,1,05,1.33,43.2,M,19.0,M,,*56
$GPGSA,A,3,29,31,03,26,32,,,,,,,,1.61,1.33,0.90*03
$GPRMC,010022.000,A,3729.1995,N,12646.9869,E,0.78,339.81,020519,,,A*6D
$GPVTG,339.81,T,,M,0.78,N,1.44,K,A*33
$GPGGA,010023.000,3729.2001,N,12646.9869,E,1,05,1.33,44.4,M,19.0,M,,*51
$GPGSA,A,3,29,31,03,26,32,,,,,,,,1.61,1.33,0.90*03
$GPRMC,010023.000,A,3729.2001,N,12646.9869,E,0.96,332.34,020519,,,A*6E
$GPVTG,332.34,T,,M,0.96,N,1.78,K,A*39
$GPGGA,010024.000,3729.2007,N,12646.9867,E,1,05,1.33,45.6,M,19.0,M,,*5D
$GPGSA,A,3,29,31,03,26,32,,,,,,,,1.61,1.33,0.90*03
$GPRMC,010024.000,A,3729.2007,N,12646.9867,E,0.80,319.35,020519,,,A*6E
$GPVTG,319.35,T,,M,0.80,N,1.48,K,A*35
$GPGGA,010025.000,3729.2004,N,12646.9880,E,1,05,1.33,48.9,M,19.0,M,,*54
$GPGSA,A,3,29,31,03,26,32,,,,,,,,1.61,1.33,0.90*03
$GPGSV,3,1,11,31,67,039,23,26,66,264,28,14,57,164,17,32,38,160,20*70
$GPGSV,3,2,11,16,37,240,21,29,34,058,33,03,19,280,22,25,13,052,26*78
$GPGSV,3,3,11,40,12,252,,27,02,194,,193,,,*4B
$GPRMC,010025.000,A,3729.2004,N,12646.9880,E,0.52,310.16,020519,,,A*62
$GPVTG,310.16,T,,M,0.52,N,0.97,K,A*31
$GPGGA,010026.000,3729.2008,N,12646.9879,E,1,05,1.33,49.5,M,19.0,M,,*50
$GPGSA,A,3,29,31,03,26,32,,,,,,,,1.61,1.33,0.90*03
$GPRMC,010026.000,A,3729.2008,N,12646.9879,E,0.33,314.02,020519,,,A*6D
$GPVTG,314.02,T,,M,0.33,N,0.62,K,A*3D
$GPGGA,010027.000,3729.2014,N,12646.9877,E,1,05,1.33,49.7,M,19.0,M,,*50
$GPGSA,A,3,29,31,03,26,32,,,,,,,,1.61,1.33,0.90*03
$GPRMC,010027.000,A,3729.2014,N,12646.9877,E,0.40,11.02,020519,,,A*5D
$GPVTG,11.02,T,,M,0.40,N,0.73,K,A*0F
$GPGGA,010028.000,3729.2018,N,12646.9877,E,1,05,1.35,49.9,M,19.0,M,,*5B
$GPGSA,A,3,29,31,03,26,32,,,,,,,,2.46,1.35,2.06*0E
$GPRMC,010028.000,A,3729.2018,N,12646.9877,E,0.27,347.22,020519,,,A*6D
$GPVTG,347.22,T,,M,0.27,N,0.51,K,A*3C
$GPGGA,010029.000,3729.2019,N,12646.9877,E,1,05,1.35,50.0,M,19.0,M,,*5A
$GPGSA,A,3,29,31,03,26,32,,,,,,,,2.46,1.35,2.06*0E
$GPRMC,010029.000,A,3729.2019,N,12646.9877,E,0.11,275.04,020519,,,A*6C
$GPVTG,275.04,T,,M,0.11,N,0.21,K,A*3A
$GPGGA,010030.000,3729.2019,N,12646.9876,E,1,05,1.33,50.0,M,19.0,M,,*55
$GPGSA,A,3,29,31,03,26,32,,,,,,,,1.61,1.33,0.90*03
$GPGSV,3,1,11,31,67,039,21,26,66,264,28,14,57,164,17,32,37,160,15*7B
$GPGSV,3,2,11,16,37,240,22,29,34,058,33,03,19,280,21,25,13,052,27*79
$GPGSV,3,3,11,27,02,194,,193,,,,34,,,*7E
$GPRMC,010030.000,A,3729.2019,N,12646.9876,E,0.36,6.74,020519,,,A*61
$GPVTG,6.74,T,,M,0.36,N,0.67,K,A*3C
$GPGGA,010031.000,3729.2020,N,12646.9876,E,1,05,1.35,50.0,M,19.0,M,,*58
$GPGSA,A,3,29,31,03,26,32,,,,,,,,2.46,1.35,2.06*0E
$GPRMC,010031.000,A,3729.2020,N,12646.9876,E,0.56,6.77,020519,,,A*6F
$GPVTG,6.77,T,,M,0.56,N,1.03,K,A*3A
$GPGGA,010032.000,3729.2021,N,12646.9877,E,1,05,1.35,50.0,M,19.0,M,,*5B
$GPGSA,A,3,29,31,03,26,32,,,,,,,,2.46,1.35,2.06*0E
$GPRMC,010032.000,A,3729.2021,N,12646.9877,E,0.53,293.84,020519,,,A*6B
$GPVTG,293.84,T,,M,0.53,N,0.99,K,A*3F
$GPGGA,010033.000,3729.2021,N,12646.9875,E,1,05,1.33,50.1,M,19.0,M,,*5F
$GPGSA,A,3,29,31,03,26,32,,,,,,,,1.61,1.33,0.90*03
$GPRMC,010033.000,A,3729.2021,N,12646.9875,E,0.10,143.32,020519,,,A*6C
$GPVTG,143.32,T,,M,0.10,N,0.19,K,A*33
$GPGGA,010034.000,3729.2021,N,12646.9876,E,1,05,1.33,50.1,M,19.0,M,,*5B
$GPGSA,A,3,29,31,03,26,32,,,,,,,,1.61,1.33,0.90*03
$GPRMC,010034.000,A,3729.2021,N,12646.9876,E,0.56,141.68,020519,,,A*67
$GPVTG,141.68,T,,M,0.56,N,1.04,K,A*31
$GPGGA,010035.000,3729.2020,N,12646.9877,E,1,05,1.33,50.2,M,19.0,M,,*59
$GPGSA,A,3,29,31,03,26,32,,,,,,,,1.61,1.33,0.90*03
$GPGSV,3,1,11,31,67,039,18,26,66,264,26,14,57,164,20,32,37,160,14*7A
$GPGSV,3,2,11,16,37,240,23,29,34,058,35,03,19,280,18,25,13,052,27*74
$GPGSV,3,3,11,27,02,194,,193,,,,35,,,*7F
$GPRMC,010035.000,A,3729.2020,N,12646.9877,E,0.60,145.55,020519,,,A*69
$GPVTG,145.55,T,,M,0.60,N,1.11,K,A*3A
$GPGGA,010036.000,3729.2014,N,12646.9876,E,1,05,1.33,50.4,M,19.0,M,,*5A
$GPGSA,A,3,29,31,03,26,32,,,,,,,,1.61,1.33,0.90*03
$GPRMC,010036.000,A,3729.2014,N,12646.9876,E,0.63,170.42,020519,,,A*6F
$GPVTG,170.42,T,,M,0.63,N,1.18,K,A*30
$GPGGA,010037.000,3729.2012,N,12646.9875,E,1,05,1.33,50.6,M,19.0,M,,*5C
$GPGSA,A,3,29,31,03,26,32,,,,,,,,1.61,1.33,0.90*03
$GPRMC,010037.000,A,3729.2012,N,12646.9875,E,0.43,158.54,020519,,,A*64
$GPVTG,158.54,T,,M,0.43,N,0.80,K,A*3F
$GPGGA,010038.000,3729.2009,N,12646.9872,E,1,05,1.33,50.8,M,19.0,M,,*50
$GPGSA,A,3,29,31,03,26,32,,,,,,,,1.61,1.33,0.90*03
$GPRMC,010038.000,A,3729.2009,N,12646.9872,E,0.46,203.74,020519,,,A*6C
$GPVTG,203.74,T,,M,0.46,N,0.85,K,A*30
$GPGGA,010039.000,3729.2009,N,12646.9870,E,1,05,1.33,51.1,M,19.0,M,,*5B
$GPGSA,A,3,29,31,03,26,32,,,,,,,,1.61,1.33,0.90*03
$GPRMC,010039.000,A,3729.2009,N,12646.9870,E,0.38,212.10,020519,,,A*64
$GPVTG,212.10,T,,M,0.38,N,0.70,K,A*31
$GPGGA,010040.000,3729.2003,N,12646.9869,E,1,05,1.33,51.2,M,19.0,M,,*54
$GPGSA,A,3,29,31,03,26,32,,,,,,,,1.61,1.33,0.90*03
$GPGSV,3,1,11,31,67,039,17,26,66,264,26,14,57,164,20,32,37,160,18*79
$GPGSV,3,2,11,16,37,240,20,29,34,058,34,03,19,280,17,25,13,052,26*78
$GPGSV,3,3,11,27,02,194,,193,,,,36,,,*7C
$GPRMC,010040.000,A,3729.2003,N,12646.9869,E,0.11,310.54,020519,,,A*60
$GPVTG,310.54,T,,M,0.11,N,0.21,K,A*3D
$GPGGA,010041.000,3729.2003,N,12646.9869,E,1,05,1.33,51.2,M,19.0,M,,*55
$GPGSA,A,3,29,31,03,26,32,,,,,,,,1.61,1.33,0.90*03
$GPRMC,010041.000,A,3729.2003,N,12646.9869,E,0.58,269.44,020519,,,A*62
$GPVTG,269.44,T,,M,0.58,N,1.07,K,A*3B
$GPGGA,010042.000,3729.2003,N,12646.9867,E,1,05,1.33,51.2,M,19.0,M,,*58
$GPGSA,A,3,29,31,03,26,32,,,,,,,,1.61,1.33,0.90*03
$GPRMC,010042.000,A,3729.2003,N,12646.9867,E,0.86,286.38,020519,,,A*66
$GPVTG,286.38,T,,M,0.86,N,1.60,K,A*33
$GPGGA,010043.000,3729.1998,N,12646.9868,E,1,05,1.33,51.3,M,19.0,M,,*5F
$GPGSA,A,3,29,31,03,26,32,,,,,,,,1.61,1.33,0.90*03
$GPRMC,010043.000,A,3729.1998,N,12646.9868,E,0.47,349.66,020519,,,A*64
$GPVTG,349.66,T,,M,0.47,N,0.88,K,A*30
$GPGGA,010044.000,3729.1990,N,12646.9869,E,1,05,1.35,51.7,M,19.0,M,,*53
$GPGSA,A,3,29,31,03,26,32,,,,,,,,2.46,1.35,2.05*0D
$GPRMC,010044.000,A,3729.1990,N,12646.9869,E,0.26,225.72,020519,,,A*63
$GPVTG,225.72,T,,M,0.26,N,0.49,K,A*34
$GPGGA,010045.000,3729.1982,N,12646.9872,E,1,05,1.33,52.0,M,19.0,M,,*59
$GPGSA,A,3,29,31,03,26,32,,,,,,,,1.61,1.33,0.90*03
$GPGSV,3,1,11,31,67,039,17,26,66,264,26,14,57,164,21,32,37,160,22*71
$GPGSV,3,2,11,16,37,240,18,29,34,058,32,03,19,280,16,25,13,052,26*74
$GPGSV,3,3,11,27,02,194,,193,,,,36,,,*7C
$GPRMC,010045.000,A,3729.1982,N,12646.9872,E,0.25,159.29,020519,,,A*6E
$GPVTG,159.29,T,,M,0.25,N,0.46,K,A*3E
$GPGGA,010046.000,3729.1974,N,12646.9875,E,1,05,1.33,52.3,M,19.0,M,,*57
$GPGSA,A,3,29,31,03,26,32,,,,,,,,1.61,1.33,0.90*03
$GPRMC,010046.000,A,3729.1974,N,12646.9875,E,0.47,197.74,020519,,,A*6D
$GPVTG,197.74,T,,M,0.47,N,0.86,K,A*3C
$GPGGA,010047.000,3729.1973,N,12646.9874,E,1,05,1.33,52.3,M,19.0,M,,*50
$GPGSA,A,3,29,31,03,26,32,,,,,,,,1.61,1.33,0.90*03
$GPRMC,010047.000,A,3729.1973,N,12646.9874,E,0.16,109.61,020519,,,A*6D
$GPVTG,109.61,T,,M,0.16,N,0.30,K,A*36
$GPGGA,010048.000,3729.1972,N,12646.9875,E,1,05,1.33,52.4,M,19.0,M,,*58
$GPGSA,A,3,29,31,03,26,32,,,,,,,,1.61,1.33,0.90*03
$GPRMC,010048.000,A,3729.1972,N,12646.9875,E,0.29,11.50,020519,,,A*54
$GPVTG,11.50,T,,M,0.29,N,0.53,K,A*05
$GPGGA,010049.000,3729.1973,N,12646.9875,E,1,05,1.35,52.4,M,19.0,M,,*5E
$GPGSA,A,3,29,31,03,26,32,,,,,,,,2.46,1.35,2.05*0D
$GPRMC,010049.000,A,3729.1973,N,12646.9875,E,0.50,6.55,020519,,,A*69
$GPVTG,6.55,T,,M,0.50,N,0.93,K,A*34
$GPGGA,010050.000,3729.1974,N,12646.9876,E,1,05,1.35,52.4,M,19.0,M,,*52
$GPGSA,A,3,29,31,03,26,32,,,,,,,,2.46,1.35,2.05*0D
$GPGSV,3,1,11,31,67,039,17,26,66,264,25,14,57,164,20,32,37,160,23*72
$GPGSV,3,2,11,16,37,240,17,29,34,058,31,03,19,280,16,25,13,052,25*7B
$GPGSV,3,3,11,27,02,194,,193,,,,38,,,*72
$GPRMC,010050.000,A,3729.1974,N,12646.9876,E,0.45,359.67,020519,,,A*69
$GPVTG,359.67,T,,M,0.45,N,0.84,K,A*3E
$GPGGA,010051.000,3729.1975,N,12646.9876,E,1,05,1.35,52.4,M,19.0,M,,*52
$GPGSA,A,3,29,31,03,26,32,,,,,,,,2.46,1.35,2.05*0D
$GPRMC,010051.000,A,3729.1975,N,12646.9876,E,0.40,330.85,020519,,,A*6F
$GPVTG,330.85,T,,M,0.40,N,0.74,K,A*37
$GPGGA,010052.000,3729.1976,N,12646.9875,E,1,05,1.33,52.4,M,19.0,M,,*57
$GPGSA,A,3,29,31,03,26,32,,,,,,,,1.61,1.33,0.90*03
$GPRMC,010052.000,A,3729.1976,N,12646.9875,E,0.24,326.15,020519,,,A*60
$GPVTG,326.15,T,,M,0.24,N,0.44,K,A*38
$GPGGA,010053.000,3729.1976,N,12646.9875,E,1,05,1.33,52.4,M,19.0,M,,*56
$GPGSA,A,3,29,31,03,26,32,,,,,,,,1.61,1.33,0.90*03
$GPRMC,010053.000,A,3729.1976,N,12646.9875,E,0.28,262.44,020519,,,A*68
$GPVTG,262.44,T,,M,0.28,N,0.51,K,A*35
$GPGGA,010054.000,3729.1976,N,12646.9874,E,1,05,1.33,52.4,M,19.0,M,,*50
$GPGSA,A,3,29,31,03,26,32,,,,,,,,1.61,1.33,0.90*03
$GPRMC,010054.000,A,3729.1976,N,12646.9874,E,0.44,282.16,020519,,,A*6D
$GPVTG,282.16,T,,M,0.44,N,0.81,K,A*3B
$GPGGA,010055.000,3729.1976,N,12646.9872,E,1,05,1.33,52.4,M,19.0,M,,*57
$GPGSA,A,3,29,31,03,26,32,,,,,,,,1.60,1.33,0.90*02
$GPGSV,3,1,11,31,67,039,18,26,66,264,24,14,57,164,20,32,37,160,25*7A
$GPGSV,3,2,11,16,37,240,14,29,34,058,32,03,19,280,14,25,13,052,23*7F
$GPGSV,3,3,11,27,02,194,,193,,,,41,,,*7C
$GPRMC,010055.000,A,3729.1976,N,12646.9872,E,0.57,278.77,020519,,,A*6A
$GPVTG,278.77,T,,M,0.57,N,1.05,K,A*36
$GPGGA,010056.000,3729.1976,N,12646.9870,E,1,05,1.33,52.4,M,19.0,M,,*56
$GPGSA,A,3,29,31,03,26,32,,,,,,,,1.60,1.33,0.90*02
$GPRMC,010056.000,A,3729.1976,N,12646.9870,E,0.46,260.20,020519,,,A*60
$GPVTG,260.20,T,,M,0.46,N,0.84,K,A*35
$GPGGA,010057.000,3729.1976,N,12646.9869,E,1,05,1.33,52.4,M,19.0,M,,*5F
$GPGSA,A,3,29,31,03,26,32,,,,,,,,1.61,1.33,0.90*03
$GPRMC,010057.000,A,3729.1976,N,12646.9869,E,0.39,233.58,020519,,,A*68
$GPVTG,233.58,T,,M,0.39,N,0.72,K,A*3D
$GPGGA,010058.000,3729.1975,N,12646.9868,E,1,05,1.33,52.4,M,19.0,M,,*52
$GPGSA,A,3,29,31,03,26,32,,,,,,,,1.61,1.33,0.90*03
$GPRMC,010058.000,A,3729.1975,N,12646.9868,E,0.79,226.95,020519,,,A*64
$GPVTG,226.95,T,,M,0.79,N,1.47,K,A*3B
$GPGGA,010059.000,3729.1967,N,12646.9868,E,1,05,1.33,52.5,M,19.0,M,,*51
$GPGSA,A,3,29,31,03,26,32,,,,,,,,1.60,1.33,0.90*02
$GPRMC,010059.000,A,3729.1967,N,12646.9868,E,0.41,240.53,020519,,,A*67
$GPVTG,240.53,T,,M,0.41,N,0.76,K,A*39
$GPGGA,010100.000,3729.1960,N,12646.9868,E,1,05,1.33,52.5,M,19.0,M,,*5B
$GPGSA,A,3,29,31,03,26,32,,,,,,,,1.61,1.33,0.90*03
$GPGSV,3,1,11,26,67,264,24,31,67,039,19,14,57,164,20,32,37,160,25*7A
$GPGSV,3,2,11,16,37,240,15,29,34,058,32,03,19,280,15,25,13,052,20*7C
$GPGSV,3,3,11,27,02,194,,193,,,,43,,,*7E
$GPRMC,010100.000,A,3729.1960,N,12646.9868,E,0.40,248.12,020519,,,A*61
$GPVTG,248.12,T,,M,0.40,N,0.74,K,A*37
$GPGGA,010101.000,3729.1952,N,12646.9869,E,1,05,1.33,52.5,M,19.0,M,,*5A
$GPGSA,A,3,29,31,03,26,32,,,,,,,,1.60,1.33,0.90*02
$GPRMC,010101.000,A,3729.1952,N,12646.9869,E,0.48,229.08,020519,,,A*64
$GPVTG,229.08,T,,M,0.48,N,0.89,K,A*31
$GPGGA,010102.000,3729.1947,N,12646.9869,E,1,05,1.33,52.4,M,19.0,M,,*5C
$GPGSA,A,3,29,31,03,26,32,,,,,,,,1.60,1.33,0.90*02
$GPRMC,010102.000,A,3729.1947,N,12646.9869,E,0.43,236.63,020519,,,A*6B
$GPVTG,236.63,T,,M,0.43,N,0.79,K,A*36
$GPGGA,010103.000,3729.1946,N,12646.9867,E,1,05,1.33,52.4,M,19.0,M,,*52
$GPGSA,A,3,29,31,03,26,32,,,,,,,,1.60,1.33,0.90*02
$GPRMC,010103.000,A,3729.1946,N,12646.9867,E,0.46,176.40,020519,,,A*66
$GPVTG,176.40,T,,M,0.46,N,0.86,K,A*35
$GPGGA,010104.000,3729.1944,N,12646.9868,E,1,05,1.33,52.4,M,19.0,M,,*58
$GPGSA,A,3,29,31,03,26,32,,,,,,,,1.61,1.33,0.90*03
$GPRMC,010104.000,A,3729.1944,N,12646.9868,E,0.75,155.94,020519,,,A*64
$GPVTG,155.94,T,,M,0.75,N,1.40,K,A*36
$GPGGA,010105.000,3729.1931,N,12646.9874,E,1,05,1.33,52.2,M,19.0,M,,*50
$GPGSA,A,3,29,31,03,26,32,,,,,,,,1.60,1.33,0.90*02
$GPGSV,3,1,11,26,67,264,24,31,67,040,20,14,57,164,22,32,37,160,26*7F
$GPGSV,3,2,11,16,37,240,16,29,34,058,32,03,19,280,15,25,13,052,19*75
$GPGSV,3,3,11,27,02,194,,193,,,,43,,,*7E
$GPRMC,010105.000,A,3729.1931,N,12646.9874,E,0.90,142.34,020519,,,A*6D
$GPVTG,142.34,T,,M,0.90,N,1.66,K,A*35
$GPGGA,010106.000,3729.1923,N,12646.9873,E,1,05,1.33,52.1,M,19.0,M,,*54
$GPGSA,A,3,29,31,03,26,32,,,,,,,,1.61,1.33,0.90*03
$GPRMC,010106.000,A,3729.1923,N,12646.9873,E,0.66,200.25,020519,,,A*66
$GPVTG,200.25,T,,M,0.66,N,1.22,K,A*39
$GPGGA,010107.000,3729.1914,N,12646.9877,E,1,05,1.33,52.0,M,19.0,M,,*54
$GPGSA,A,3,29,31,03,26,32,,,,,,,,1.60,1.33,0.90*02
$GPRMC,010107.000,A,3729.1914,N,12646.9877,E,0.37,341.83,020519,,,A*6B
$GPVTG,341.83,T,,M,0.37,N,0.68,K,A*3A
$GPGGA,010108.000,3729.1907,N,12646.9881,E,1,05,1.33,51.8,M,19.0,M,,*5B
$GPGSA,A,3,29,31,03,26,32,,,,,,,,1.60,1.33,0.90*02
$GPRMC,010108.000,A,3729.1907,N,12646.9881,E,0.29,327.09,020519,,,A*62
$GPVTG,327.09,T,,M,0.29,N,0.55,K,A*39
$GPGGA,010109.000,3729.1902,N,12646.9882,E,1,05,1.33,51.8,M,19.0,M,,*5C
$GPGSA,A,3,29,31,03,26,32,,,,,,,,1.60,1.33,0.90*02
$GPRMC,010109.000,A,3729.1902,N,12646.9882,E,0.53,229.13,020519,,,A*6C
$GPVTG,229.13,T,,M,0.53,N,0.99,K,A*30
$GPGGA,010110.000,3729.1896,N,12646.9888,E,1,05,1.33,51.7,M,19.0,M,,*5D
$GPGSA,A,3,29,31,03,26,32,,,,,,,,1.60,1.33,0.90*02
$GPGSV,3,1,11,26,67,264,26,31,67,040,20,14,57,164,22,32,37,160,27*7C
$GPGSV,3,2,11,16,37,240,20,29,34,058,32,03,19,280,14,25,13,052,19*71
$GPGSV,3,3,11,27,02,194,,193,,,,45,,,*78
$GPRMC,010110.000,A,3729.1896,N,12646.9888,E,0.19,41.99,020519,,,A*52
$GPVTG,41.99,T,,M,0.19,N,0.36,K,A*05
$GPGGA,010111.000,3729.1893,N,12646.9893,E,1,05,1.33,51.7,M,19.0,M,,*53
$GPGSA,A,3,29,31,03,26,32,,,,,,,,1.60,1.33,0.90*02
$GPRMC,010111.000,A,3729.1893,N,12646.9893,E,0.10,135.72,020519,,,A*62
$GPVTG,135.72,T,,M,0.10,N,0.18,K,A*37
$GPGGA,010112.000,3729.1888,N,12646.9897,E,1,05,1.33,51.6,M,19.0,M,,*5F
$GPGSA,A,3,29,31,03,26,32,,,,,,,,1.60,1.33,0.90*02
$GPRMC,010112.000,A,3729.1888,N,12646.9897,E,0.28,237.09,020519,,,A*69
$GPVTG,237.09,T,,M,0.28,N,0.53,K,A*3E
$GPGGA,010113.000,3729.1885,N,12646.9901,E,1,05,1.33,51.6,M,19.0,M,,*5D
$GPGSA,A,3,29,31,03,26,32,,,,,,,,1.60,1.33,0.90*02
